name,lng,lat,type1,type2
华清园停车场,114.29734700000,30.59896100000,交通设施,交通设施
东方紫悦停车场,114.28474700000,30.60176100000,交通设施,交通设施
三阳路地铁三阳路站(公交站),114.29462600000,30.60159600000,交通设施,交通设施
三阳路中山大道(公交站),114.29935800000,30.59967600000,交通设施,交通设施
苗栗路澳门路(公交站),114.29040400000,30.60320100000,交通设施,交通设施
大智无界·空中小镇停车场,114.28955600000,30.59250000000,交通设施,交通设施
大智嘉园II区地下停车库,114.28806300000,30.59248500000,交通设施,交通设施
停车场(单洞社区名仕阁公寓东),114.27866100000,30.58608100000,交通设施,交通设施
一元路-占道收费停车场,114.29753900000,30.59539100000,交通设施,交通设施
阳光城央座停车场,114.27717000000,30.60793500000,交通设施,交通设施
江岸区三山停车场,114.28135500000,30.60763900000,交通设施,交通设施
车站路中山大道(公交站),114.29415600000,30.59320400000,交通设施,交通设施
停车场(保成社区北区东),114.28534400000,30.58666800000,交通设施,交通设施
湖北鑫乐银兴电影城沿街停车场,114.29803800000,30.59093700000,交通设施,交通设施
界立方(兰陵路店)停车场,114.29567300000,30.58736600000,交通设施,交通设施
武汉M+购物中心停车场-G084车位,114.28089700000,30.58616900000,交通设施,交通设施
武汉M+购物中心停车场-G064车位,114.28078100000,30.58633900000,交通设施,交通设施
武汉M+购物中心停车场-G044车位,114.28072800000,30.58619800000,交通设施,交通设施
中国·中华城停车场,114.27810200000,30.60801900000,交通设施,交通设施
武汉公共自行车香港路二站,114.28280300000,30.60426700000,交通设施,交通设施
天驿时尚酒店大智路店停车场,114.28775500000,30.59350300000,交通设施,交通设施
保成社区-停车棚,114.28400400000,30.58587800000,交通设施,交通设施
停车场,114.28758100000,30.59076500000,交通设施,交通设施
喜鹊巢公寓地面停车场,114.29127600000,30.58836900000,交通设施,交通设施
老甫社区-电动车停车场,114.27858800000,30.58843500000,交通设施,交通设施
高雄路-路侧停车位,114.28099100000,30.59943700000,交通设施,交通设施
交易停车场,114.28857000000,30.59116100000,交通设施,交通设施
如家快捷酒店地面停车场,114.28082300000,30.60374100000,交通设施,交通设施
武汉君悦物业管理有限公司停车场,114.28727800000,30.59854500000,交通设施,交通设施
福隆花园停车场,114.28231600000,30.59955700000,交通设施,交通设施
天悦外滩金融中心停车场,114.30210200000,30.59883200000,交通设施,交通设施
大润发江汉店停车场,114.28003900000,30.58680600000,交通设施,交通设施
武汉M+购物中心停车场-G054车位,114.28070100000,30.58652500000,交通设施,交通设施
循礼社区地面停车场,114.27635200000,30.58856200000,交通设施,交通设施
武汉M+购物中心停车场-G040车位,114.28064700000,30.58613600000,交通设施,交通设施
武汉M+购物中心停车场-G007车位,114.28020000000,30.58624800000,交通设施,交通设施
铂仕汇国际广场停车场,114.29742400000,30.60153200000,交通设施,交通设施
中南剧场1001天河影院停车场,114.29312100000,30.59905000000,交通设施,交通设施
世纪大厦-智能立体车库,114.28159400000,30.58767500000,交通设施,交通设施
停车位(武汉数码港),114.28972000000,30.58957500000,交通设施,交通设施
二曜路-路侧停车位,114.29965700000,30.59709400000,交通设施,交通设施
澳门路-路侧停车位,114.28985100000,30.60410800000,交通设施,交通设施
保成路-路侧停车位,114.28307100000,30.58721600000,交通设施,交通设施
洞庭街-路侧停车位,114.29396700000,30.58708900000,交通设施,交通设施
武汉供电公司综合楼停车场,114.28869100000,30.59867300000,交通设施,交通设施
武汉市第六医院停车场,114.28530400000,30.60267200000,交通设施,交通设施
天津路-路侧停车位,114.29087100000,30.58809000000,交通设施,交通设施
六合路-路侧停车位,114.30235500000,30.60363500000,交通设施,交通设施
解放南路-路侧停车位,114.29097800000,30.59860600000,交通设施,交通设施
鄱阳街-占道收费停车场(二),114.29369600000,30.58833200000,交通设施,交通设施
中山大道五福路(公交站),114.29950700000,30.60286300000,交通设施,交通设施
球场路-路侧停车位,114.28377600000,30.60686200000,交通设施,交通设施
高雄路-路侧停车位,114.28099100000,30.59943700000,交通设施,交通设施
停车场(模范三村西南),114.28739400000,30.60027900000,交通设施,交通设施
路侧停车位(长江日报南路),114.27686700000,30.60408800000,交通设施,交通设施
天津路-路侧停车位,114.29087100000,30.58809000000,交通设施,交通设施
三阳路停车场,114.29472600000,30.60279200000,交通设施,交通设施
三阳路中山大道(临时站)(公交站),114.29897000000,30.59969300000,交通设施,交通设施
五福路(公交站),114.30115900000,30.60244000000,交通设施,交通设施
东方驾校停车场,114.29453400000,30.60276900000,交通设施,交通设施
武汉市儿童医院-北停车场,114.28243200000,30.60670600000,交通设施,交通设施
建华大厦停车场,114.28496000000,30.58660000000,交通设施,交通设施
车站路中山大道(公交站),114.29402000000,30.59326600000,交通设施,交通设施
香港路茶叶市场停车场,114.28300400000,30.60231200000,交通设施,交通设施
融科·天城4期停车场,114.29368200000,30.60082500000,交通设施,交通设施
湖北省国土绘测院停车场,114.28492900000,30.60721300000,交通设施,交通设施
怡东大厦-停车场(二),114.29711200000,30.59196700000,交通设施,交通设施
胜利街一元路车站,114.29735200000,30.59499400000,交通设施,交通设施
中山大道大智路(临时站)(公交站),114.29086900000,30.59005600000,交通设施,交通设施
烽鸟共享汽车网点(6号线苗栗路D口停车场),114.28411400000,30.60062200000,交通设施,交通设施
新兴停车场,114.30186700000,30.60665300000,交通设施,交通设施
下陈家湖停车场,114.29342200000,30.60319700000,交通设施,交通设施
停车场,114.28033800000,30.60812300000,交通设施,交通设施
停车场,114.27808800000,30.60520300000,交通设施,交通设施
停车场,114.28087100000,30.60362500000,交通设施,交通设施
临时站(公交站),114.29819100000,30.59093400000,交通设施,交通设施
金冠大厦停车场,114.28493200000,30.60786500000,交通设施,交通设施
丹枫白露酒店停车场,114.29665000000,30.60147100000,交通设施,交通设施
武汉市烟草专卖局江岸区分局停车场,114.27626600000,30.60349200000,交通设施,交通设施
加勒比海夜总会停车场,114.29774000000,30.60511100000,交通设施,交通设施
滨江假日酒店停车场,114.29543800000,30.58624700000,交通设施,交通设施
船舶国际广场停车场,114.28154600000,30.58875600000,交通设施,交通设施
船舶国际广场停车场,114.28067900000,30.58808600000,交通设施,交通设施
金益大厦停车场,114.29900700000,30.60129300000,交通设施,交通设施
停车场(崇善路),114.28700100000,30.58786100000,交通设施,交通设施
融科·天城停车场,114.29066100000,30.59956000000,交通设施,交通设施
明星书院停车场(麟趾路),114.29809600000,30.60176100000,交通设施,交通设施
停车场(香港路),114.28464000000,30.60077600000,交通设施,交通设施
银城大厦停车场,114.27686100000,30.59910300000,交通设施,交通设施
停车场(纯阳街),114.29984100000,30.60638900000,交通设施,交通设施
楚天实业大厦停车场,114.29126900000,30.58762200000,交通设施,交通设施
黎黄陂路占道收费停车场,114.29454200000,30.58986100000,交通设施,交通设施
停车场(福忠里东),114.28616100000,30.58686000000,交通设施,交通设施
华清园停车场,114.29723000000,30.59867000000,交通设施,交通设施
停车场(江汉北路),114.27683300000,30.58966000000,交通设施,交通设施
锦江苑停车场,114.29909500000,30.60206700000,交通设施,交通设施
停车场(四唯小路),114.30045200000,30.60178800000,交通设施,交通设施
三阳广场停车场,114.29524600000,30.60181300000,交通设施,交通设施
停车场(解放公园路),114.29346200000,30.60669900000,交通设施,交通设施
停车场(鑫成俊杰东),114.28420800000,30.58788400000,交通设施,交通设施
港台公寓停车场,114.28398100000,30.59659600000,交通设施,交通设施
长青停车场,114.29129600000,30.59339100000,交通设施,交通设施
时代广场停车场,114.29592800000,30.58846900000,交通设施,交通设施
武汉市江汉区地方税务局停车场,114.27978100000,30.60639400000,交通设施,交通设施
俊华大厦停车场,114.28254700000,30.58580100000,交通设施,交通设施
大智嘉园2区停车场,114.28622300000,30.58882600000,交通设施,交通设施
停车场(大卫办公公寓西北),114.29216600000,30.59174600000,交通设施,交通设施
汉口江滩轮渡旅游粤汉码头,114.30112800000,30.59178500000,交通设施,交通设施
停车场(武汉市人大常委会西北),114.30189200000,30.60021000000,交通设施,交通设施
宝岛公园停车场,114.27739500000,30.60247500000,交通设施,交通设施
停车场(德润大厦德润楼东),114.28622400000,30.58885100000,交通设施,交通设施
停车场(武汉剧院村东北),114.28322500000,30.59148400000,交通设施,交通设施
武汉市妇女儿童医疗保健中心第6停车场,114.28224500000,30.60667300000,交通设施,交通设施
中奇香港花园停车场,114.28162600000,30.60445000000,交通设施,交通设施
高雄大酒店停车场,114.27724600000,30.60655900000,交通设施,交通设施
武汉马哥孛罗酒店停车场,114.29616700000,30.58734400000,交通设施,交通设施
武汉香格里拉大酒店停车场,114.27759600000,30.60493700000,交通设施,交通设施
芯工场·武汉青年众创空间光谷创业咖啡停车场,114.28029300000,30.59204500000,交通设施,交通设施
武汉古玩城停车场,114.28532100000,30.58827700000,交通设施,交通设施
武汉古玩城停车场,114.28566900000,30.58876000000,交通设施,交通设施
世纪皇冠停车场,114.28760200000,30.59604100000,交通设施,交通设施
金皇冠停车场,114.29746700000,30.58987000000,交通设施,交通设施
武汉公共自行车江汉路轻轨站,114.28135200000,30.58800700000,交通设施,交通设施
贵丽风尚酒店停车场,114.28208700000,30.59379900000,交通设施,交通设施
粤汉游船码头,114.30123800000,30.59177400000,交通设施,交通设施
江城明珠豪生大酒店停车场,114.29883700000,30.59290100000,交通设施,交通设施
德庄火锅停车场,114.30107100000,30.59679200000,交通设施,交通设施
华美国际停车场,114.28294600000,30.60336000000,交通设施,交通设施
大智嘉园停车场,114.28682800000,30.59223500000,交通设施,交通设施
武汉美联假日酒店市中心店停车场,114.27659300000,30.58666700000,交通设施,交通设施
简朴世家停车场,114.30065900000,30.59869000000,交通设施,交通设施
山海关路-路侧停车位,114.30229800000,30.60598900000,交通设施,交通设施
停车场(一元街社区卫生服务中心南),114.29642400000,30.59728900000,交通设施,交通设施
六合新界停车场,114.30250100000,30.60349300000,交通设施,交通设施
停车场(建设街),114.29597000000,30.59819000000,交通设施,交通设施
红光小区地上停车场,114.29501400000,30.58574300000,交通设施,交通设施
鄱阳街停车场,114.29194200000,30.58656100000,交通设施,交通设施
荔晶酒店停车场,114.29676800000,30.60295500000,交通设施,交通设施
武汉市卫生局停车场,114.28552900000,30.59098000000,交通设施,交通设施
武汉剧院停车场,114.28174300000,30.58997800000,交通设施,交通设施
浚安大厦停车场,114.29817100000,30.60548800000,交通设施,交通设施
开源·阳光城停车场,114.28443900000,30.59939400000,交通设施,交通设施
汉口江滩2期停车场,114.30288400000,30.59849400000,交通设施,交通设施
融科·天城2期停车场,114.29069100000,30.59963000000,交通设施,交通设施
兆瑞国际大酒店停车场,114.27919400000,30.60547900000,交通设施,交通设施
长盛自动立体车库,114.28399400000,30.58591900000,交通设施,交通设施
武汉市公共自行车循礼门二站,114.27681800000,30.58737100000,交通设施,交通设施
中城国际停车场,114.29275100000,30.59734300000,交通设施,交通设施
融科·天城2期停车场,114.29071700000,30.59846400000,交通设施,交通设施
十八号足疗屋停车场,114.28133300000,30.59777300000,交通设施,交通设施
停车场(吉庆街),114.28777400000,30.58785900000,交通设施,交通设施
美庐时尚餐厅停车场,114.28488100000,30.58718400000,交通设施,交通设施
金茂大楼停车场,114.27704400000,30.59006200000,交通设施,交通设施
停车场(长青广场商务中心A座北),114.29325300000,30.59408400000,交通设施,交通设施
华清园停车场,114.29532500000,30.59897100000,交通设施,交通设施
亚洲证券大厦停车场,114.28851300000,30.58889600000,交通设施,交通设施
光荣坊停车场,114.28217300000,30.59225500000,交通设施,交通设施
兆瑞国际大酒店停车场,114.27936400000,30.60538100000,交通设施,交通设施
大润发江汉店停车场,114.28003900000,30.58680600000,交通设施,交通设施
停车场(湖北省武汉税收博物馆东),114.27971800000,30.60697400000,交通设施,交通设施
穗丰电子大厦停车场,114.28280900000,30.58761400000,交通设施,交通设施
谢先生餐厅外滩店停车场,114.29862600000,30.60142700000,交通设施,交通设施
中国银行(武汉宝丰支行)停车场,114.28393600000,30.59044700000,交通设施,交通设施
停车场(昌年里东南),114.29679000000,30.59561700000,交通设施,交通设施
华通大厦停车场,114.29071300000,30.60790500000,交通设施,交通设施
台北路停车场,114.27840900000,30.59612100000,交通设施,交通设施
四唯街袁家社区停车场,114.29918400000,30.60715900000,交通设施,交通设施
通缘宾馆停车场,114.29323000000,30.60622100000,交通设施,交通设施
武汉建筑设计院科技大楼停车场,114.29941300000,30.60187300000,交通设施,交通设施
武汉市总工会停车场,114.28037000000,30.59029000000,交通设施,交通设施
武汉市民族宗教事务委员会停车场,114.28649900000,30.58740100000,交通设施,交通设施
华清园停车场,114.29674700000,30.59808300000,交通设施,交通设施
停车场(酒逑汇时尚台球馆东北),114.28813500000,30.59377200000,交通设施,交通设施
舞秀娱乐CLUB停车场,114.27968700000,30.58654500000,交通设施,交通设施
停车场(新华派出所西北),114.27768100000,30.58717300000,交通设施,交通设施
停车场(三元里东南),114.30151200000,30.60633400000,交通设施,交通设施
停车场(武汉市群众艺术馆东南),114.29341800000,30.58699300000,交通设施,交通设施
停车场(金源世界中心东),114.29481800000,30.59345800000,交通设施,交通设施
小妹酒楼停车场,114.28235700000,30.60416400000,交通设施,交通设施
停车场,114.29095200000,30.58896200000,交通设施,交通设施
汉口银行江岸支行停车场,114.29755300000,30.60058400000,交通设施,交通设施
新长江国际大厦A座停车场,114.29511700000,30.60323100000,交通设施,交通设施
新长江国际大厦停车场,114.29635900000,30.60266500000,交通设施,交通设施
武汉市民政局停车场,114.28084200000,30.60197600000,交通设施,交通设施
武汉房地产市场停车场,114.27862800000,30.60565200000,交通设施,交通设施
新源公寓停车场,114.29401100000,30.59022200000,交通设施,交通设施
汉工场创意中心停车场,114.29007700000,30.58659700000,交通设施,交通设施
武汉市江岸区人民政府停车场,114.30309300000,30.60307000000,交通设施,交通设施
京汉大道公安路(公交站),114.29431300000,30.59922100000,交通设施,交通设施
澳门路苗栗路(公交站),114.28946700000,30.60427500000,交通设施,交通设施
澳门路湖边坊(公交站),114.28654800000,30.60633600000,交通设施,交通设施
澳门路开明路(公交站),114.28325500000,30.60775400000,交通设施,交通设施
澳门路惠济路(公交站),114.28125800000,30.60785000000,交通设施,交通设施
停车场(金宝大厦南),114.28531900000,30.58606600000,交通设施,交通设施
台北路台北一路(公交站),114.27956600000,30.59546500000,交通设施,交通设施
江汉北路渣家路(公交站),114.27612900000,30.59036500000,交通设施,交通设施
台北路鲩子湖(公交站),114.27652400000,30.59812500000,交通设施,交通设施
台北路解放大道口(公交站),114.28231900000,30.59327800000,交通设施,交通设施
武汉公共自行车加勒比海站,114.29831100000,30.60455800000,交通设施,交通设施
洞庭街蔡锷路(公交站),114.29756000000,30.59245900000,交通设施,交通设施
江汉路地铁循礼门站(公交站),114.28016900000,30.58791000000,交通设施,交通设施
万科·香港路8号停车场,114.28723000000,30.59779400000,交通设施,交通设施
中南剧场停车场,114.29280500000,30.59883700000,交通设施,交通设施
停车场(东方大厦西北),114.29055000000,30.59411300000,交通设施,交通设施
停车场(武汉市儿童医院西北),114.28107800000,30.60661800000,交通设施,交通设施
洞庭小路-室内停车场,114.29696300000,30.59046900000,交通设施,交通设施
球场路六医院(公交站),114.28639400000,30.60316600000,交通设施,交通设施
艺苑社区居委会停车场,114.29667700000,30.60776700000,交通设施,交通设施
解放大道球场街(公交站),114.29033600000,30.59961500000,交通设施,交通设施
球场路儿童医院(公交站),114.28311800000,30.60748800000,交通设施,交通设施
武汉图书馆停车场,114.27685100000,30.60586300000,交通设施,交通设施
香港路综合大楼停车场,114.28342700000,30.60362900000,交通设施,交通设施
停车场(澳门路),114.28891000000,30.60472500000,交通设施,交通设施
武汉图书馆地面停车场,114.27686400000,30.60522000000,交通设施,交通设施
香江宾馆停车场,114.28150700000,30.60469100000,交通设施,交通设施
停车场,114.27912500000,30.58776800000,交通设施,交通设施
停车场(新香港大厦东南),114.28473200000,30.59889500000,交通设施,交通设施
融兴大厦停车场,114.28830600000,30.59003800000,交通设施,交通设施
西马名仕停车场,114.28447600000,30.59620700000,交通设施,交通设施
停车场,114.29610200000,30.59326700000,交通设施,交通设施
东方大厦停车场,114.29069300000,30.59377300000,交通设施,交通设施
南国中心停车场,114.27707300000,30.58747400000,交通设施,交通设施
汉口江滩停车场,114.29931100000,30.59245800000,交通设施,交通设施
胜利街车站路(公交站),114.29502600000,30.59223200000,交通设施,交通设施
车站路粤汉码头(公交站),114.29752200000,30.59150900000,交通设施,交通设施
伊美尚(武汉)医疗美容医院停车场,114.29473900000,30.59377500000,交通设施,交通设施
循礼门饭店停车场,114.27845700000,30.58799500000,交通设施,交通设施
武汉公共自行车前进五路二站,114.27987800000,30.58625100000,交通设施,交通设施
香港路儿童医院(公交站),114.28179100000,30.60508800000,交通设施,交通设施
光华路湖边坊(公交站),114.28533200000,30.60636900000,交通设施,交通设施
京汉大道南京路(公交站),114.28325600000,30.58932700000,交通设施,交通设施
苗栗路香港路口(公交站),114.28596900000,30.59976600000,交通设施,交通设施
黄石路(公交站),114.28364500000,30.59100700000,交通设施,交通设施
京汉大道三阳路(公交站),114.29623400000,30.60182200000,交通设施,交通设施
京汉大道新兴街(公交站),114.30032500000,30.60768200000,交通设施,交通设施
江汉二路南京路(公交站),114.28518200000,30.58579100000,交通设施,交通设施
台东路熊家台(公交站),114.28278300000,30.59597800000,交通设施,交通设施
西马路亚单角(公交站),114.28455900000,30.59784200000,交通设施,交通设施
京汉大道大智路(公交站),114.28978700000,30.59505600000,交通设施,交通设施
苗栗路高雄路口(公交站),114.28290500000,30.59783900000,交通设施,交通设施
铭新街南京路(公交站),114.28449100000,30.58794200000,交通设施,交通设施
洞庭街洞庭小路(公交站),114.29619700000,30.59060000000,交通设施,交通设施
鄱阳街兰陵路(公交站),114.29421100000,30.58871100000,交通设施,交通设施
香港路(地铁站),114.27934600000,30.60767100000,交通设施,交通设施
苗栗路(地铁站),114.28452500000,30.60123500000,交通设施,交通设施
循礼门(地铁站),114.28057000000,30.58767600000,交通设施,交通设施
三阳路(地铁站),114.29590800000,30.60113200000,交通设施,交通设施
大智路(地铁站),114.28953500000,30.59493300000,交通设施,交通设施
中山大道大智路(公交站),114.29075500000,30.58992700000,交通设施,交通设施
解放公园路解放大道口(公交站),114.29415300000,30.60657300000,交通设施,交通设施
中山大道三阳路(公交站),114.29715700000,30.59879600000,交通设施,交通设施
中山大道黄兴路(公交站),114.29287400000,30.59304600000,交通设施,交通设施
胜利街一元路(公交站),114.29725500000,30.59493200000,交通设施,交通设施
解放大道劳动街(公交站),114.29545600000,30.60393800000,交通设施,交通设施
解放大道西马路(公交站),114.28458300000,30.59387400000,交通设施,交通设施
解放大道循礼门(公交站),114.28215400000,30.59121400000,交通设施,交通设施
建设大道市图书馆(公交站),114.27735500000,30.60566900000,交通设施,交通设施
沿江大道兰陵路(公交站),114.29597500000,30.58596800000,交通设施,交通设施
沿江大道粤汉码头(公交站),114.29936600000,30.59310000000,交通设施,交通设施
胜利街六合路(公交站),114.30235900000,30.60302200000,交通设施,交通设施
胜利街三阳路(公交站),114.30081300000,30.60033100000,交通设施,交通设施
京汉大道黄石路(公交站),114.28512300000,30.59093100000,交通设施,交通设施
沿江大道三阳路(公交站),114.30264100000,30.59909200000,交通设施,交通设施
君安大厦停车场,114.29415000000,30.58643600000,交通设施,交通设施
停车场,114.29155100000,30.59917200000,交通设施,交通设施
停车场(融科天城创意工坊C座西),114.29302300000,30.60020000000,交通设施,交通设施
世纪花宾馆-沿街停车场,114.28320600000,30.58720600000,交通设施,交通设施
停车场(光华小区东),114.28707900000,30.60576600000,交通设施,交通设施
停车场(幸源雅城北),114.28477600000,30.59870400000,交通设施,交通设施
万家都市宾馆停车场,114.27703800000,30.59044600000,交通设施,交通设施
襄河码头,114.29987700000,30.59299300000,交通设施,交通设施
停车场(蔡锷路),114.29600900000,30.59417600000,交通设施,交通设施
汉口江滩-停车场,114.30007100000,30.59329300000,交通设施,交通设施
E品·停车场,114.29270500000,30.59520800000,交通设施,交通设施
武汉市园林建筑规划设计院停车场,114.29852500000,30.59276800000,交通设施,交通设施
停车场(新兴街),114.29965900000,30.60744200000,交通设施,交通设施
停车场(球场路邮政所西南),114.28674600000,30.60272100000,交通设施,交通设施
盈安大厦停车场,114.28753100000,30.59323600000,交通设施,交通设施
武汉市妇女儿童医疗保健中心停车场,114.28211900000,30.60730700000,交通设施,交通设施
俊华雅苑停车场,114.29844900000,30.60761000000,交通设施,交通设施
停车场,114.29105100000,30.58622000000,交通设施,交通设施
君悦尚品停车场,114.28671700000,30.59860600000,交通设施,交通设施
君悦尚品停车场,114.28672200000,30.59858000000,交通设施,交通设施
停车场(鄂储居民小区西北),114.28471200000,30.58594200000,交通设施,交通设施
蔡锷路-占道收费停车场,114.29737600000,30.59335700000,交通设施,交通设施
武汉市儿童医院停车场,114.28285400000,30.60667800000,交通设施,交通设施
武汉市儿童医院停车场(装修中),114.28224900000,30.60657000000,交通设施,交通设施
车站路-占道收费停车场,114.29622500000,30.59196400000,交通设施,交通设施
武汉市财政局沿街停车场,114.28532300000,30.59522100000,交通设施,交通设施
扶轮大厦停车场,114.29579200000,30.59234300000,交通设施,交通设施
金路易大厦-沿街停车场,114.28645700000,30.58581200000,交通设施,交通设施
红鼎豆捞(光华路店)沿街停车场,114.28344200000,30.60469300000,交通设施,交通设施
北京路中山大道(公交站),114.29037500000,30.58724100000,交通设施,交通设施
大智嘉园I区停车场,114.28752900000,30.59288000000,交通设施,交通设施
大智嘉园I区停车场,114.28882400000,30.59313400000,交通设施,交通设施
停车场(高雄小区西),114.28124700000,30.59913500000,交通设施,交通设施
停车场(香港路),114.28165600000,30.60511000000,交通设施,交通设施
地上停车场,114.28536600000,30.59896200000,交通设施,交通设施
汉工场创意中心停车场,114.29013300000,30.58684200000,交通设施,交通设施
船舶国际广场停车场,114.28138800000,30.58836700000,交通设施,交通设施
长青广场C座停车场,114.29203200000,30.59296200000,交通设施,交通设施
停车场(苗栗路),114.28331400000,30.59779800000,交通设施,交通设施
停车场(西马路),114.28384500000,30.59748400000,交通设施,交通设施
新长江国际广场停车场,114.29557800000,30.60222700000,交通设施,交通设施
兰陵路占道收费停车场,114.29365700000,30.58870300000,交通设施,交通设施
停车场(武汉市人民政府西),114.29807500000,30.59571300000,交通设施,交通设施
铭新街停车场,114.28784300000,30.59069000000,交通设施,交通设施
世纪大厦停车场,114.28246500000,30.58776200000,交通设施,交通设施
停车场(幸源雅城南),114.28467600000,30.59830600000,交通设施,交通设施
停车场(一元路),114.29891500000,30.59490600000,交通设施,交通设施
联合村停车场,114.28491000000,30.59636400000,交通设施,交通设施
停车场(开明路17-23号院西),114.28337300000,30.60783600000,交通设施,交通设施
停车场(五福社区福惠大院西),114.29966600000,30.60252100000,交通设施,交通设施
中城国际停车场,114.29380600000,30.59769900000,交通设施,交通设施
停车场(江岸区人大常委会西),114.30317700000,30.60326200000,交通设施,交通设施
停车场(艺苑社区西北),114.29711800000,30.60730800000,交通设施,交通设施
7天酒店停车场,114.28402000000,30.60778400000,交通设施,交通设施
幸源·雅城停车场,114.28425800000,30.59823600000,交通设施,交通设施
武汉市财政局停车场,114.28537700000,30.59561900000,交通设施,交通设施
停车场(邮局小区东南),114.30310200000,30.60710800000,交通设施,交通设施
湖北省商务厅3号门停车场,114.27766000000,30.59032800000,交通设施,交通设施
停车场(长青广场西南),114.29138400000,30.59389000000,交通设施,交通设施
停车场(解放大道),114.28538200000,30.59446900000,交通设施,交通设施
停车场(解放大道),114.28464600000,30.59366900000,交通设施,交通设施
停车场,114.28397500000,30.59162200000,交通设施,交通设施
停车场(云宏大厦东),114.29361300000,30.60105300000,交通设施,交通设施
停车场(劳动街),114.29399900000,30.60433500000,交通设施,交通设施
停车场(五福小路),114.30127100000,30.60338600000,交通设施,交通设施
财富大厦停车场,114.28638600000,30.59522100000,交通设施,交通设施
停车场(三星阳景园东北),114.29156400000,30.60101000000,交通设施,交通设施
长青停车场,114.29300400000,30.59435200000,交通设施,交通设施
绎君医疗美容停车场,114.28725300000,30.59644100000,交通设施,交通设施
停车场(鄱阳街),114.29320900000,30.58806100000,交通设施,交通设施
吉庆民俗街1栋停车场,114.28896000000,30.58930100000,交通设施,交通设施
保华街南京路(公交站),114.28722800000,30.58582400000,交通设施,交通设施
铭新街停车场,114.28703500000,30.59043900000,交通设施,交通设施
京汉大道交易街(公交站),114.28692900000,30.59264500000,交通设施,交通设施
停车场(洞庭街),114.29414100000,30.58828200000,交通设施,交通设施
停车场(友益街),114.29445600000,30.59525300000,交通设施,交通设施
停车场(大智街道政务服务中心东),114.28634100000,30.58985400000,交通设施,交通设施
停车场(吉庆街),114.28468700000,30.58724100000,交通设施,交通设施
交易停车场,114.28823700000,30.59176600000,交通设施,交通设施
停车场(坤厚里东),114.29798300000,30.59575600000,交通设施,交通设施
停车场(公安横街),114.29290600000,30.59722600000,交通设施,交通设施
7天酒店(铭新街店)停车场,114.28679200000,30.59005400000,交通设施,交通设施
停车场(车站街尚德社区西),114.29008400000,30.59358000000,交通设施,交通设施
停车场(西马街金门社区西北),114.28729800000,30.60160900000,交通设施,交通设施
停车场(铭新街),114.28672200000,30.58996400000,交通设施,交通设施
路边停车场,114.28626400000,30.59800500000,交通设施,交通设施
停车场(泰宁街),114.28311500000,30.58769900000,交通设施,交通设施
停车场(胜利街),114.29136300000,30.58744600000,交通设施,交通设施
武汉市土地交易中心停车场,114.29641100000,30.60046500000,交通设施,交通设施
停车场(万科·香港路8号东南),114.28675000000,30.59798500000,交通设施,交通设施
融科天城停车场,114.29285500000,30.59830500000,交通设施,交通设施
融科·天城4期停车场,114.29491700000,30.60044300000,交通设施,交通设施
胜利街地上停车场,114.29086300000,30.58755300000,交通设施,交通设施
停车场,114.29638400000,30.58573200000,交通设施,交通设施
停车场,114.30031700000,30.59329400000,交通设施,交通设施
停车场(大智路),114.28897100000,30.58990500000,交通设施,交通设施
停车场,114.28397400000,30.59293100000,交通设施,交通设施
未来家园停车场,114.30017800000,30.60663200000,交通设施,交通设施
停车场(金源世界中心B座西北),114.29404300000,30.59337200000,交通设施,交通设施
停车场(鼎新里西),114.28392200000,30.58649400000,交通设施,交通设施
停车场(胜利街),114.30150600000,30.60160100000,交通设施,交通设施
香格里拉停车场,114.27817000000,30.60506200000,交通设施,交通设施
停车场(澳门路),114.28361400000,30.60819200000,交通设施,交通设施
中城国际停车场,114.29571400000,30.59702000000,交通设施,交通设施
停车场(永庆里西),114.29480400000,30.59560500000,交通设施,交通设施
德润大厦停车场,114.28525300000,30.58861400000,交通设施,交通设施
金地·京汉1903停车场,114.28610100000,30.59425100000,交通设施,交通设施
停车场(延庆里东),114.29972300000,30.59864900000,交通设施,交通设施
建投大厦停车场,114.28202600000,30.59746300000,交通设施,交通设施
匠心城T.9艺术商业中心停车场,114.29136600000,30.59633100000,交通设施,交通设施
路边停车场(武汉市城市管理委员会东南),114.30148700000,30.60058500000,交通设施,交通设施
新长江国际大厦停车场,114.29517900000,30.60296800000,交通设施,交通设施
地上停车场,114.30158900000,30.59638700000,交通设施,交通设施
停车场(盛合嘉园北),114.30117100000,30.60497900000,交通设施,交通设施
停车场(陈怀民路),114.30283100000,30.60492100000,交通设施,交通设施
停车场(惠济路),114.27964200000,30.60447300000,交通设施,交通设施
停车场(武汉市水务局西南),114.30175500000,30.59791700000,交通设施,交通设施
物产大厦停车场,114.27619100000,30.60389600000,交通设施,交通设施
7天酒店停车场,114.28299500000,30.60790600000,交通设施,交通设施
停车场(纯阳街),114.30172900000,30.60581200000,交通设施,交通设施
湖北储备物资管理局地上停车场,114.29620200000,30.58672200000,交通设施,交通设施
停车场,114.29234300000,30.58923600000,交通设施,交通设施
停车场(保成社区西北),114.28446100000,30.58593100000,交通设施,交通设施
停车场(南京路),114.28343400000,30.58822600000,交通设施,交通设施
停车场(车站路),114.29312600000,30.59422700000,交通设施,交通设施
武汉市儿童医院-南停车场,114.28352000000,30.60466000000,交通设施,交通设施
中国武汉人才市场地上停车场,114.29831700000,30.58973200000,交通设施,交通设施
武汉市供销合作总社-室内停车场,114.29248600000,30.58731100000,交通设施,交通设施
停车场(德安总里小区东北),114.28380600000,30.58790400000,交通设施,交通设施
安静社区停车场,114.28374600000,30.59140600000,交通设施,交通设施
安和九龙阁停车场,114.28243700000,30.60406500000,交通设施,交通设施
武汉国际大厦停车场,114.27654200000,30.58605800000,交通设施,交通设施
停车场(胜利街近北京路),114.28992100000,30.58665400000,交通设施,交通设施
停车场(洞庭苑东),114.29947500000,30.59382400000,交通设施,交通设施
停车场(君悦尚品西北),114.28612100000,30.59865600000,交通设施,交通设施
停车场(澳门路社区北)(装修中),114.28888300000,30.60129300000,交通设施,交通设施
停车场(九运京汉名都北),114.29707500000,30.60348500000,交通设施,交通设施
蓝天歌剧院2号停车场(新华派出所东),114.27923100000,30.58632500000,交通设施,交通设施
武汉图书馆停车场,114.27632900000,30.60540700000,交通设施,交通设施
鑫成俊杰停车场,114.28462000000,30.58862100000,交通设施,交通设施
停车场(融科天城创意工坊A座西北),114.29428100000,30.60133500000,交通设施,交通设施
澎湖公寓-地下停车场,114.27708000000,30.59879400000,交通设施,交通设施
商业街停车场,114.28576600000,30.59407800000,交通设施,交通设施
停车场(岳飞街),114.29467300000,30.59366200000,交通设施,交通设施
停车场(武汉城管委西南),114.30110300000,30.60109700000,交通设施,交通设施
武汉数码港停车场,114.28976200000,30.58980900000,交通设施,交通设施
武汉美术馆停车场,114.28739600000,30.58608900000,交通设施,交通设施
光华社区停车场,114.28805800000,30.60532800000,交通设施,交通设施
停车场(黎黄陂路),114.29574100000,30.58917400000,交通设施,交通设施
黄师傅停车场,114.30060400000,30.59881700000,交通设施,交通设施
停车场(湖边坊人家东南),114.29014000000,30.60259400000,交通设施,交通设施
城中坊停车场,114.28924200000,30.60200800000,交通设施,交通设施
武汉花鸟市场停车场,114.28742700000,30.60303900000,交通设施,交通设施
停车场,114.30317200000,30.60544600000,交通设施,交通设施
大智嘉园停车场,114.28809900000,30.59328900000,交通设施,交通设施
中福时代停车场,114.29424500000,30.59902300000,交通设施,交通设施
空中花园停车场,114.28809900000,30.59021400000,交通设施,交通设施
金源世界中心停车场,114.29467300000,30.59366200000,交通设施,交通设施
中国·中华城停车场,114.27741000000,30.60791600000,交通设施,交通设施
停车场(京汉花园西),114.28868900000,30.59664400000,交通设施,交通设施
停车场(五福社区福盛大院西),114.30025900000,30.60346800000,交通设施,交通设施
天津路占道收费路边停车场,114.29359400000,30.58642300000,交通设施,交通设施
长江海事局信息中心停车场,114.29382600000,30.58634800000,交通设施,交通设施
新源大厦地下停车场,114.29391400000,30.59001900000,交通设施,交通设施
停车场(武汉市商务局西南),114.29308800000,30.58905800000,交通设施,交通设施
香榭大厦停车场,114.28599400000,30.59935600000,交通设施,交通设施
融科·天城3期停车场,114.29279800000,30.59931100000,交通设施,交通设施
停车场(武汉供电公司综合楼北),114.28856800000,30.59973600000,交通设施,交通设施
停车场,114.28472900000,30.59184100000,交通设施,交通设施
绿茵仁居停车场,114.28972900000,30.59948800000,交通设施,交通设施
怡东大厦停车场,114.29700000000,30.59207600000,交通设施,交通设施
7天酒店地上停车场,114.28285500000,30.60745800000,交通设施,交通设施
C立方·时尚汇停车场,114.28163300000,30.58756100000,交通设施,交通设施
停车场(五福社区邮局大院南),114.30022400000,30.60119300000,交通设施,交通设施
蓝盾驾校停车场,114.28683100000,30.58891400000,交通设施,交通设施
宝岛公园停车场,114.27713700000,30.59912800000,交通设施,交通设施
武汉市青少年宫停车场,114.28029000000,30.59229300000,交通设施,交通设施
武汉市青少年宫停车场,114.27712200000,30.59431200000,交通设施,交通设施
台北花苑停车场,114.27751000000,30.59803800000,交通设施,交通设施
台北路停车场,114.27840900000,30.59612100000,交通设施,交通设施
银城大厦停车场,114.27662200000,30.59916100000,交通设施,交通设施
停车场(台东路),114.28241000000,30.59645100000,交通设施,交通设施
武汉公共自行车台北路站,114.28089900000,30.59404500000,交通设施,交通设施
港湾公寓停车场,114.28264200000,30.59485500000,交通设施,交通设施
武汉市城乡建设职工中等专业学校停车场,114.28264300000,30.59553500000,交通设施,交通设施
武汉市城乡建设职工中等专业学校停车场,114.28094000000,30.59460400000,交通设施,交通设施
停车场(高雄苑南),114.28108400000,30.60107500000,交通设施,交通设施
高雄小区停车场,114.28164100000,30.59846100000,交通设施,交通设施
停车场(高雄路),114.28202000000,30.59618700000,交通设施,交通设施
大智公寓停车场,114.28885600000,30.59282600000,交通设施,交通设施
大智公寓停车场,114.28891200000,30.59265400000,交通设施,交通设施
兰陵·大公馆地面停车场,114.29157400000,30.58950400000,交通设施,交通设施
中城国际停车场,114.29461000000,30.59797500000,交通设施,交通设施
中城国际停车场,114.29538200000,30.59720300000,交通设施,交通设施
大智商城停车场,114.28847000000,30.59028200000,交通设施,交通设施
融科·天城停车场,114.29221400000,30.59763700000,交通设施,交通设施
融科·天城3期停车场,114.29321600000,30.60032000000,交通设施,交通设施
融科·天城2期停车场,114.28982100000,30.59831400000,交通设施,交通设施
融科·天城停车场,114.29376400000,30.60065400000,交通设施,交通设施
中城国际东区停车场,114.29503900000,30.59763700000,交通设施,交通设施
融科·天城4期停车场,114.29484800000,30.60016400000,交通设施,交通设施
保华街黄石路(公交站),114.28779700000,30.58707500000,交通设施,交通设施
停车场(一元街办事处西南),114.29367500000,30.59252100000,交通设施,交通设施
光荣坊停车场,114.28922500000,30.59691600000,交通设施,交通设施
武汉鄂钢大酒店停车场,114.29923700000,30.59795300000,交通设施,交通设施
停车场(江岸区四唯街胜江社区西南),114.30155800000,30.60126600000,交通设施,交通设施
金都会KTV停车场,114.29583600000,30.58664100000,交通设施,交通设施
九运京汉名都停车场,114.29686000000,30.60318000000,交通设施,交通设施
丽都水岸商务会所停车场,114.29177600000,30.58858500000,交通设施,交通设施
停车场(外滩·棕榈泉东北),114.30314000000,30.60407300000,交通设施,交通设施
胜利街兰陵路(公交站),114.29181400000,30.58874000000,交通设施,交通设施
停车场(球新社区西北),114.28981100000,30.59600000000,交通设施,交通设施
停车场(模范三村西南),114.28688300000,30.60005100000,交通设施,交通设施
立新巷小区地上停车场,114.29760700000,30.59142800000,交通设施,交通设施
停车场(武汉市江岸区卫生局东),114.29749100000,30.59797400000,交通设施,交通设施
停车场(万科金域湖庭东北),114.28109700000,30.59977300000,交通设施,交通设施
停车场(福怡苑东),114.28365300000,30.60257100000,交通设施,交通设施
胜利街北京路(公交站),114.29079600000,30.58722400000,交通设施,交通设施
新鸿基花园停车场,114.28941800000,30.59541300000,交通设施,交通设施
大智停车场,114.28475600000,30.58908000000,交通设施,交通设施
京汉大道地铁循礼门站(公交站),114.28012300000,30.58676500000,交通设施,交通设施
武汉市公共自行车循礼门站,114.27845300000,30.58889900000,交通设施,交通设施
万科·香港路8号停车场,114.28737300000,30.59810600000,交通设施,交通设施
君悦尚品停车场,114.28712000000,30.59870600000,交通设施,交通设施
万科·香港路8号停车场,114.28747500000,30.59828300000,交通设施,交通设施
长盛公寓停车场,114.28398400000,30.58584700000,交通设施,交通设施
汉口公馆停车场,114.27779800000,30.58980700000,交通设施,交通设施
中城国际3栋停车场,114.29461400000,30.59795700000,交通设施,交通设施
香港路地铁苗栗路站(公交站),114.28472700000,30.60094200000,交通设施,交通设施
汉正街控股集团公司地上停车场,114.29850400000,30.59398400000,交通设施,交通设施
停车场(解放南路),114.28425700000,30.59276400000,交通设施,交通设施
九鼎公司三阳停车场,114.30151400000,30.59746900000,交通设施,交通设施
停车场(云宏大厦西南),114.29255800000,30.59998800000,交通设施,交通设施
停车场,114.28401500000,30.60033800000,交通设施,交通设施
停车场(长江日报南路),114.27651600000,30.60304500000,交通设施,交通设施
都会轩停车场,114.28091500000,30.58602500000,交通设施,交通设施
香格里拉大酒店停车场,114.27749600000,30.60488800000,交通设施,交通设施
武汉香格里拉大酒店停车场,114.27787800000,30.60544900000,交通设施,交通设施
武汉市第八医院停车场,114.30038700000,30.60610000000,交通设施,交通设施
馨悦国际停车场,114.28642600000,30.59411500000,交通设施,交通设施
停车场(麟趾路),114.29818200000,30.60189700000,交通设施,交通设施
德成·澳门银座-地下停车场,114.29037300000,30.60390600000,交通设施,交通设施
停车场(澳门银座西),114.28949900000,30.60413600000,交通设施,交通设施
半岛豪庭停车场,114.29773400000,30.60515700000,交通设施,交通设施
停车场(大卫办公公寓西北),114.29275700000,30.59105300000,交通设施,交通设施
武汉市妇女儿童医疗保健中心停车场,114.28244500000,30.60492500000,交通设施,交通设施
武汉市妇幼保健院停车场,114.28289600000,30.60494200000,交通设施,交通设施
武汉市妇女儿童医疗保健中心停车场,114.28327400000,30.60490300000,交通设施,交通设施
宝岛停车场,114.28079600000,30.59969000000,交通设施,交通设施
食宝坊酒店停车场,114.29725600000,30.59214700000,交通设施,交通设施
天津路停车场,114.29162500000,30.58728500000,交通设施,交通设施
路边停车场,114.29722800000,30.58758800000,交通设施,交通设施
停车场,114.28493600000,30.59350600000,交通设施,交通设施
停车场(模范三村西南),114.29021600000,30.59924500000,交通设施,交通设施
停车场(洞庭里东南),114.29650000000,30.58892200000,交通设施,交通设施
停车场(中山大道),114.29867500000,30.60087000000,交通设施,交通设施
停车场,114.28560100000,30.60720200000,交通设施,交通设施
停车场,114.29607700000,30.58892900000,交通设施,交通设施
停车场(兰陵路),114.29468800000,30.58873100000,交通设施,交通设施
停车场(融科·天城2期东北),114.29124900000,30.59880700000,交通设施,交通设施
停车场,114.29759400000,30.60202700000,交通设施,交通设施
停车场(坤厚社区东南),114.29860200000,30.59684000000,交通设施,交通设施
天津路停车场,114.29096200000,30.58632400000,交通设施,交通设施
停车场(南京路),114.28321000000,30.58839400000,交通设施,交通设施
停车场(华美国际东南),114.28294500000,30.60349400000,交通设施,交通设施
中南机电大厦地上停车场,114.29533300000,30.58751700000,交通设施,交通设施
停车场(球场路),114.28406400000,30.60654100000,交通设施,交通设施
停车场(洞庭小路),114.29733200000,30.59052000000,交通设施,交通设施
停车场(永胜大厦东南),114.30033700000,30.59681000000,交通设施,交通设施
停车场(金门路),114.28579500000,30.60208100000,交通设施,交通设施
停车场(仁义社区东南),114.29967400000,30.60818500000,交通设施,交通设施
停车场(康顺庭苑西南),114.28741600000,30.60174900000,交通设施,交通设施
停车场(京汉花园西北),114.28960400000,30.59729300000,交通设施,交通设施
停车场(联医社区西北),114.28590900000,30.60395800000,交通设施,交通设施
停车场(天津路),114.29048200000,30.58832100000,交通设施,交通设施
停车场(黄兴路),114.29001400000,30.59348100000,交通设施,交通设施
停车场(车站路),114.29333100000,30.59403000000,交通设施,交通设施
停车场(东方大厦东北),114.29080800000,30.59382500000,交通设施,交通设施
停车场(二曜路),114.29788100000,30.59790000000,交通设施,交通设施
停车场(洞庭街),114.29869500000,30.59378200000,交通设施,交通设施
停车场(四唯路),114.30004500000,30.60118000000,交通设施,交通设施
天津路占道收费停车场,114.29270800000,30.58644400000,交通设施,交通设施
停车场(青莲大厦西北),114.28180500000,30.60461500000,交通设施,交通设施
停车场(张自忠路),114.30293200000,30.60707400000,交通设施,交通设施
路边停车场(五福社区福盛大院西),114.30050600000,30.60267300000,交通设施,交通设施
停车场(京汉大道),114.28183800000,30.58837000000,交通设施,交通设施
停车场(融科天城创意工坊C座西南),114.29344900000,30.59949700000,交通设施,交通设施
停车场(汇通路),114.28441500000,30.58913100000,交通设施,交通设施
停车场(阳春阁社区西南),114.29156400000,30.60036000000,交通设施,交通设施
停车场(武汉市统计局东南),114.30060400000,30.59601000000,交通设施,交通设施
停车场(慈德里小区西北),114.28375400000,30.58650300000,交通设施,交通设施
长青停车场,114.29132400000,30.59335000000,交通设施,交通设施
长青地下车位,114.29132400000,30.59335000000,交通设施,交通设施
长享足足道停车场,114.28890100000,30.59082900000,交通设施,交通设施
长江海事局信息中心地上停车场,114.29419000000,30.58659000000,交通设施,交通设施
金色池塘料理美术馆循礼门店停车场,114.28124600000,30.59105600000,交通设施,交通设施
武汉市实验初级中学停车场,114.29366000000,30.59929100000,交通设施,交通设施
楚天金阳停车场,114.29123500000,30.58843300000,交通设施,交通设施
停车场(武汉市勤工俭学管理处西南),114.29745400000,30.59157900000,交通设施,交通设施
阳春阁社区-车库,114.29335100000,30.60113000000,交通设施,交通设施
武汉儿童医院-第7停车场,114.28211900000,30.60730700000,交通设施,交通设施
金地·京汉1903停车场,114.28620200000,30.59229300000,交通设施,交通设施
君安公寓地上停车场,114.29415200000,30.58726600000,交通设施,交通设施
武汉市第六医院停车场,114.28494300000,30.60244400000,交通设施,交通设施
武汉市第六医院停车场,114.28520000000,30.60226000000,交通设施,交通设施
武汉市第六中学停车场,114.28650500000,30.60581600000,交通设施,交通设施
高雄大酒店停车场(暂停营业),114.27711900000,30.60667000000,交通设施,交通设施
高雄大酒店停车场(暂停营业),114.27694300000,30.60675700000,交通设施,交通设施
再续酒店沿江大道汉口江滩店停车场(暂停营业),114.29884800000,30.59243800000,交通设施,交通设施
洞庭壹号会所停车场,114.29747000000,30.59061000000,交通设施,交通设施
武汉基督教青年会停车场,114.29476000000,30.58973700000,交通设施,交通设施
武汉市儿童医院停车场(开明路),114.28244400000,30.60723000000,交通设施,交通设施
武汉市儿童医院停车场(装修中),114.28256300000,30.60496100000,交通设施,交通设施
停车场(武汉市儿童医院急诊西南),114.28202300000,30.60502400000,交通设施,交通设施
西马名仕二期停车场,114.28405400000,30.59660500000,交通设施,交通设施
金皇冠量贩式KTV停车场,114.29755500000,30.58981400000,交通设施,交通设施
食尚坊停车场,114.28736900000,30.59325600000,交通设施,交通设施
浅深休闲会所武汉京汉店停车场,114.29368200000,30.59844700000,交通设施,交通设施
武汉仲锦物业管理有限公司-访客停车场,114.28159400000,30.58772900000,交通设施,交通设施
丽顿华居酒店解放公园路店停车场,114.29893200000,30.60445700000,交通设施,交通设施
大润发江汉路店免费班车候车区,114.27908600000,30.58750300000,交通设施,交通设施
中国联通湖北分公司停车场,114.28119100000,30.60656700000,交通设施,交通设施
中国人民财产保险股份有限公司汉口支公司停车场,114.28045000000,30.60560300000,交通设施,交通设施
球新社区停车场,114.29012000000,30.59566800000,交通设施,交通设施
停车场,114.28676000000,30.59259900000,交通设施,交通设施
停车场,114.28568100000,30.59418200000,交通设施,交通设施
路边停车场,114.28628700000,30.59547900000,交通设施,交通设施
香港路副食茶叶批发市场停车场,114.28265300000,30.60199400000,交通设施,交通设施
高雄88号停车场,114.28118000000,30.60322200000,交通设施,交通设施
如家快捷酒店武汉高雄路店停车场,114.28059300000,30.60340000000,交通设施,交通设施
湖北省电力公司武汉供电公司停车场,114.29020800000,30.60000600000,交通设施,交通设施
武汉市供销合作总社-室内停车场,114.29254600000,30.58654500000,交通设施,交通设施
湖北省供销合作总社停车场,114.27848900000,30.58895300000,交通设施,交通设施
武汉市青少年宫停车场,114.27926400000,30.59531400000,交通设施,交通设施
武汉公共自行车香港路三站,114.28752000000,30.59769300000,交通设施,交通设施
美食故事停车场,114.29842700000,30.60540600000,交通设施,交通设施
中侨观邸停车场,114.27608200000,30.59620200000,交通设施,交通设施
江岸区排水管理站停车场,114.28448800000,30.59494200000,交通设施,交通设施
武汉市住房保障和房屋管理局停车场,114.27848700000,30.60580000000,交通设施,交通设施
禧邦可广场停车场,114.27857000000,30.60822100000,交通设施,交通设施
武汉市自然资源和规划局-地下停车场,114.29948800000,30.59942700000,交通设施,交通设施
武汉市规划研究院停车场,114.29576100000,30.60026700000,交通设施,交通设施
武汉市国土资源和规划局停车场,114.29930600000,30.59926200000,交通设施,交通设施
惠济路近香港路公共地面停车场,114.28107000000,30.60685000000,交通设施,交通设施
盛合嘉园停车场,114.30115300000,30.60438800000,交通设施,交通设施
合作路体育馆停车场,114.29235400000,30.58828200000,交通设施,交通设施
江花综合大楼停车场,114.29666200000,30.60053400000,交通设施,交通设施
水务综合大楼停车场,114.30169300000,30.60385700000,交通设施,交通设施
江花综合大楼停车场,114.29568100000,30.60011300000,交通设施,交通设施
武汉市妇女联合会停车场,114.29752400000,30.59259500000,交通设施,交通设施
江汉大学汉口校区停车场,114.28537500000,30.60384000000,交通设施,交通设施
智慧楼停车场,114.27728300000,30.59679000000,交通设施,交通设施
武汉市总工会停车场,114.28041000000,30.59033500000,交通设施,交通设施
农机大院停车场,114.29751100000,30.59461900000,交通设施,交通设施
吉庆民俗街1栋停车场,114.28899600000,30.58938900000,交通设施,交通设施
外滩里艺术设计中心停车场,114.29666600000,30.58916500000,交通设施,交通设施
华美国际停车场,114.28281300000,30.60378300000,交通设施,交通设施
馨悦国际停车场,114.28685200000,30.59452100000,交通设施,交通设施
中城国际停车场,114.29421800000,30.59836400000,交通设施,交通设施
新长江国际大厦停车场,114.29500800000,30.60302400000,交通设施,交通设施
新长江国际广场停车场,114.29565300000,30.60232200000,交通设施,交通设施
停车场(馨悦国际北),114.28711900000,30.59541800000,交通设施,交通设施
世纪大厦停车场,114.28159400000,30.58767500000,交通设施,交通设施
武汉滨江假日酒店-室内停车场,114.29568100000,30.58589400000,交通设施,交通设施
武汉美联假日酒店市中心店停车场,114.27655200000,30.58626400000,交通设施,交通设施
聚银大厦停车场,114.27717600000,30.58584600000,交通设施,交通设施
艳阳天酒店(解放公园路京汉大道口店)-停车场,114.29868700000,30.60428100000,交通设施,交通设施
六合新界停车场,114.30103900000,30.60348900000,交通设施,交通设施
豪景名苑停车场,114.28975200000,30.58618400000,交通设施,交通设施
武汉市招商局停车场,114.29359700000,30.58966500000,交通设施,交通设施
武汉市信息产业局停车场,114.29608300000,30.58684000000,交通设施,交通设施
停车场(庆祥里西),114.29720500000,30.59808100000,交通设施,交通设施
乐凯大厦停车场,114.29526800000,30.58991100000,交通设施,交通设施
云宏大厦停车场,114.29367500000,30.60077300000,交通设施,交通设施
融科·天城1期停车场,114.29058100000,30.59790900000,交通设施,交通设施
万科金域湖庭停车场,114.28165400000,30.59928100000,交通设施,交通设施
兰陵·大公馆停车场,114.29156100000,30.58921700000,交通设施,交通设施
桃源里停车场,114.27949600000,30.59569300000,交通设施,交通设施
苗栗停车场,114.28940900000,30.60191700000,交通设施,交通设施
停车场(苗栗路),114.28669500000,30.60016400000,交通设施,交通设施
新丽大厦停车场,114.29230200000,30.58858800000,交通设施,交通设施
湖北省电力博物馆停车场,114.29319800000,30.58756200000,交通设施,交通设施
武汉市第六医院停车场,114.28500400000,30.60213100000,交通设施,交通设施
武汉汇豪大酒店停车场,114.28140800000,30.58886700000,交通设施,交通设施
绿茵仁居停车场,114.28965800000,30.60041900000,交通设施,交通设施
中国建设银行武汉金茂支行停车场,114.27736600000,30.59011900000,交通设施,交通设施
停车场(大智嘉园2区西南),114.28582200000,30.59145000000,交通设施,交通设施
停车场,114.28300000000,30.59157500000,交通设施,交通设施
地上停车场,114.27828300000,30.58944400000,交通设施,交通设施
蜜蜂停车,114.27882600000,30.60559200000,交通设施,交通设施
江城明珠豪生大酒店停车场,114.29902500000,30.59323200000,交通设施,交通设施
台北名居停车场,114.28197800000,30.59394900000,交通设施,交通设施
武汉市中医医院停车场,114.29259100000,30.59065100000,交通设施,交通设施
武汉市儿童医院停车场,114.28315900000,30.60534100000,交通设施,交通设施
武汉市青少年宫停车场,114.28007300000,30.59107000000,交通设施,交通设施
武汉市青少年宫停车场,114.28014200000,30.59208100000,交通设施,交通设施
月票车场,114.28365900000,30.60376300000,交通设施,交通设施
华清园停车场,114.29488500000,30.59936600000,交通设施,交通设施
华清园停车场,114.29669600000,30.59915300000,交通设施,交通设施
车站街华清社区停车场,114.29494900000,30.59773400000,交通设施,交通设施
武汉市群众艺术馆停车场,114.29286300000,30.58730200000,交通设施,交通设施
浙商大厦停车场,114.28081700000,30.60755500000,交通设施,交通设施
浙商大厦停车场,114.28079500000,30.60784200000,交通设施,交通设施
洞庭社区停车场,114.29504200000,30.58741400000,交通设施,交通设施
通信学院家属院停车场,114.29821500000,30.60828600000,交通设施,交通设施
台北沁园停车场,114.28395000000,30.59672200000,交通设施,交通设施
天主堂(车站路)停车场,114.29555700000,30.59206700000,交通设施,交通设施
派尚主题酒店停车场(暂停营业),114.29743900000,30.60515100000,交通设施,交通设施
电动车停放处,114.29411500000,30.59073200000,交通设施,交通设施
停车场(马祖路),114.28205100000,30.59912000000,交通设施,交通设施
停车场(四唯路),114.29984800000,30.60132900000,交通设施,交通设施
未来家园停车场,114.30051200000,30.60682100000,交通设施,交通设施
停车场,114.28325900000,30.59219100000,交通设施,交通设施
停车场,114.30067100000,30.59457000000,交通设施,交通设施
停车场,114.28682700000,30.59337900000,交通设施,交通设施
停车场,114.29006700000,30.58671400000,交通设施,交通设施
停车场(武工老年公寓北),114.29337000000,30.58591200000,交通设施,交通设施
停车场,114.30110800000,30.59555400000,交通设施,交通设施
停车场,114.29599700000,30.60310800000,交通设施,交通设施
停车场,114.29333700000,30.59786200000,交通设施,交通设施
停车场,114.27967200000,30.59683500000,交通设施,交通设施
格格屋停车场,114.28878800000,30.59072000000,交通设施,交通设施
锦江苑停车场,114.29862600000,30.60190400000,交通设施,交通设施
麟趾路停车场(暂停营业),114.29768600000,30.60358200000,交通设施,交通设施
百帝苑停车场,114.28402600000,30.59817100000,交通设施,交通设施
招银苑停车场,114.28019700000,30.59723100000,交通设施,交通设施
洞庭别苑停车场,114.29712700000,30.59033500000,交通设施,交通设施
半岛豪庭停车场,114.29760000000,30.60516900000,交通设施,交通设施
江花庭院停车场,114.29686200000,30.60040300000,交通设施,交通设施
江花庭院停车场,114.29772500000,30.59957000000,交通设施,交通设施
江花庭院停车场,114.29740900000,30.60025600000,交通设施,交通设施
停车场(康顺庭苑南),114.28775100000,30.60201800000,交通设施,交通设施
外滩三阳金城停车场,114.29836800000,30.60094500000,交通设施,交通设施
外滩三阳金城停车场,114.29751700000,30.60091800000,交通设施,交通设施
停车场,114.28517900000,30.59258500000,交通设施,交通设施
万科·香港路8号停车场,114.28738300000,30.59815300000,交通设施,交通设施
维也纳酒店停车场,114.28182000000,30.59373600000,交通设施,交通设施
拉斯维加停车场,114.28014600000,30.59534200000,交通设施,交通设施
金色未来停车场,114.28566600000,30.59100700000,交通设施,交通设施
金色未来沿街停车场,114.28582100000,30.59144900000,交通设施,交通设施
停车场(大智嘉园2区东北),114.28673000000,30.59221200000,交通设施,交通设施
中南剧场停车场,114.29357400000,30.59908900000,交通设施,交通设施
国防信息学院-停车场,114.29076100000,30.60799200000,交通设施,交通设施
怡东大厦停车场,114.29706300000,30.59190500000,交通设施,交通设施
华智大厦停车场,114.29068400000,30.59687500000,交通设施,交通设施
青莲大厦停车场,114.28190300000,30.60424000000,交通设施,交通设施
华智大厦停车场,114.29090700000,30.59715500000,交通设施,交通设施
青莲大厦停车场,114.28202600000,30.60455000000,交通设施,交通设施
桃源大厦停车场,114.29724400000,30.59252900000,交通设施,交通设施
远洋大厦停车场,114.28365600000,30.60420700000,交通设施,交通设施
南国中心停车场,114.27626700000,30.58804000000,交通设施,交通设施
停车场(沿江大道),114.30281600000,30.59922600000,交通设施,交通设施
洞庭街-占道收费停车场(二),114.29437900000,30.58783400000,交通设施,交通设施
车站路-占道收费停车场(一),114.29438300000,30.59359000000,交通设施,交通设施
路边停车场,114.29827000000,30.59624100000,交通设施,交通设施
武汉宝利金独立音乐人之家普通公寓(解放公园路分店),114.28194000000,30.60100700000,交通设施,交通设施
桃源商住楼1-4F停车场,114.29706700000,30.59243400000,交通设施,交通设施
武汉七一华源中学停车场,114.29923500000,30.60575400000,交通设施,交通设施
馨悦国际停车场,114.28658900000,30.59390900000,交通设施,交通设施
车站路-占道收费停车场(二),114.29775900000,30.59134300000,交通设施,交通设施
洞庭街-占道收费停车场(三),114.29862700000,30.59388500000,交通设施,交通设施
胜利街-占道收费停车场(三),114.29865200000,30.59717800000,交通设施,交通设施
大智嘉园2区停车场,114.28791300000,30.59248600000,交通设施,交通设施
停车场(花莲社区省农资大院东南),114.27941800000,30.60443100000,交通设施,交通设施
船舶国际广场停车场,114.28130700000,30.58821500000,交通设施,交通设施
铂仕汇国际广场停车场,114.29759400000,30.60202700000,交通设施,交通设施
停车场(五福小路),114.30134400000,30.60326100000,交通设施,交通设施
江城明珠豪生大酒店停车场,114.29900300000,30.59312800000,交通设施,交通设施
大润发江汉店停车场,114.27965200000,30.58732100000,交通设施,交通设施
大润发停车场,114.27923100000,30.58742800000,交通设施,交通设施
大润发停车场,114.27991200000,30.58683700000,交通设施,交通设施
武汉市公共自行车洞庭街站,114.29680700000,30.59171100000,交通设施,交通设施
武汉民生耳鼻喉专科医院停车场,114.28555500000,30.60775300000,交通设施,交通设施
停车场(浙商大厦东南),114.28141600000,30.60685300000,交通设施,交通设施
吉庆民俗街5号地下停车库,114.28768300000,30.58773400000,交通设施,交通设施
新华路(公交站),114.27652500000,30.58699600000,交通设施,交通设施
六合新界停车场,114.30188300000,30.60312700000,交通设施,交通设施
停车场(铭新街),114.28527300000,30.58831300000,交通设施,交通设施
大润发江汉路店汽车停车场(入口),114.28001800000,30.58687600000,交通设施,交通设施
大智嘉园1区停车场,114.28752900000,30.59288000000,交通设施,交通设施
玉龙居小区地上停车场,114.29433100000,30.58766300000,交通设施,交通设施
福隆花园停车场,114.28105400000,30.59763300000,交通设施,交通设施
停车场(时代广场北),114.29478000000,30.58852500000,交通设施,交通设施
停车场(车站路小区西北),114.29259700000,30.59446000000,交通设施,交通设施
停车场(黄兴路),114.29096800000,30.59343300000,交通设施,交通设施
停车场(裕华公寓西),114.28953400000,30.59342300000,交通设施,交通设施
停车场(江岸区一元街延庆社区东南),114.29861200000,30.59756100000,交通设施,交通设施
停车场(车站街华清社区西北),114.29503500000,30.59788100000,交通设施,交通设施
路边停车场(车站街华清社区西北),114.29467400000,30.59823500000,交通设施,交通设施
停车场(高雄小区西南),114.28102600000,30.59882700000,交通设施,交通设施
停车场(光华路7号大院东南),114.28765700000,30.60559700000,交通设施,交通设施
停车场(大智嘉园2区北),114.28647800000,30.59195200000,交通设施,交通设施
武汉汇豪大酒店停车场,114.28239500000,30.58846300000,交通设施,交通设施
停车场(大智嘉园2区西南),114.28639300000,30.59165600000,交通设施,交通设施
停车场(延庆里东),114.28888000000,30.59406500000,交通设施,交通设施
停车场(三阳路),114.29795000000,30.60006700000,交通设施,交通设施
停车场(球场路),114.28918700000,30.59907100000,交通设施,交通设施
三阳宾馆停车场,114.30134400000,30.60326100000,交通设施,交通设施
金色未来停车场,114.28566600000,30.59100700000,交通设施,交通设施
君安公寓停车场,114.29408300000,30.58712100000,交通设施,交通设施
大智嘉园II区地下停车库,114.28806300000,30.59248500000,交通设施,交通设施
景福小区停车场,114.28833600000,30.59034400000,交通设施,交通设施
空中花园停车场,114.28839300000,30.59015800000,交通设施,交通设施
三阳宾馆停车场,114.30070400000,30.59846500000,交通设施,交通设施
格格屋停车场,114.28876300000,30.59074300000,交通设施,交通设施
鑫大华停车场,114.29430500000,30.59873900000,交通设施,交通设施
解放大道与三阳路交叉口,114.29535200000,30.60428300000,交通设施,交通设施
民福金堡大厦停车场,114.29545100000,30.59716300000,交通设施,交通设施
循礼门(C口),114.28095400000,30.58695200000,交通设施,交通设施
东方驾校停车场,114.27805200000,30.60305400000,交通设施,交通设施
汇通路(公交站),114.28703700000,30.58682200000,交通设施,交通设施
长青地下车场,114.29198200000,30.59293100000,交通设施,交通设施
港湾公寓停车场,114.28028800000,30.59229000000,交通设施,交通设施
武汉市青少年文化宫-体育馆,114.28000900000,30.59190300000,公服,体育设施
合作路体育馆,114.29258000000,30.58848800000,公服,体育设施
武汉市青少年宫运动场,114.27701600000,30.59535200000,公服,体育设施
武汉市青少年宫体育馆,114.28000400000,30.59182800000,公服,体育设施
武汉市七一中学-体育馆,114.30097600000,30.60824200000,公服,体育设施
亚韩整形美容外科医院,114.27647800000,30.60392900000,公服,医疗设施
江岸区车站街社区卫生服务中心,114.29041100000,30.59343100000,公服,医疗设施
球场街安静社区卫生服务站,114.28466700000,30.59287300000,公服,医疗设施
江岸区球场街北区社区卫生服务中心,114.28667900000,30.59397900000,公服,医疗设施
劳动街社区卫生服务中心,114.28924900000,30.60414800000,公服,医疗设施
球场街社区卫生服务中心中西医结合部,114.28665800000,30.59402000000,公服,医疗设施
爱恩医疗美容,114.28760600000,30.59261200000,公服,医疗设施
星梦医疗美容,114.29210500000,30.59779900000,公服,医疗设施
长江航运总医院-武汉脑科医院,114.28225800000,30.60795300000,公服,医疗设施
武汉第一口腔医院香港路门诊部,114.28475100000,30.60143500000,公服,医疗设施
美加壹·克拉医疗美容,114.28851400000,30.59346200000,公服,医疗设施
劳动街社区卫生服务中心狂犬病暴露预防处置门诊,114.28925200000,30.60414800000,公服,医疗设施
武汉儿童医院-武汉市妇幼保健院,114.28269100000,30.60456100000,公服,医疗设施
武汉市急救中心惠济路脑卒中专科急救站,114.28207000000,30.60788300000,公服,医疗设施
达尔文口腔,114.28084300000,30.58613700000,公服,医疗设施
江岸区劳动街社区卫生服务中心,114.29325400000,30.60421300000,公服,医疗设施
百昌口腔,114.30174800000,30.60539400000,公服,医疗设施
湖北中医药大学附属胃肠肛门病医院,114.30057700000,30.60559600000,公服,医疗设施
武汉金药堂中医院,114.28469200000,30.59972000000,公服,医疗设施
武汉市第六医院江汉大学附属医院,114.28581400000,30.60401700000,公服,医疗设施
武汉市第八医院科教楼,114.30061100000,30.60397100000,公服,医疗设施
武汉市第六医院内科楼,114.28515000000,30.60263000000,公服,医疗设施
武汉市第六医院肺结节诊治中心,114.28429800000,30.60257400000,公服,医疗设施
李小密视力调理中心,114.29786400000,30.60535500000,公服,医疗设施
解放骨科(西马路店),114.28516500000,30.59407100000,公服,医疗设施
铭雅骨科矫形中心,114.28133100000,30.60358000000,公服,医疗设施
武汉金药堂中医院中医门诊部,114.28469300000,30.59946200000,公服,医疗设施
肽慕医美(融科天城店),114.29251600000,30.59821300000,公服,医疗设施
武汉市第六医院咯血中心,114.28455400000,30.60221200000,公服,医疗设施
思美妍医疗美容门诊部,114.29081400000,30.59938500000,公服,医疗设施
爱思特整形,114.29472100000,30.59381200000,公服,医疗设施
长江航运总医院胸痛中心,114.28202100000,30.60789600000,公服,医疗设施
天雅口腔三阳路门诊部,114.29738300000,30.60008200000,公服,医疗设施
聪明堂眼科诊所,114.28956800000,30.59255600000,公服,医疗设施
德亚口腔香港路院,114.28687100000,30.59708500000,公服,医疗设施
武汉领秀医疗美容,114.29444000000,30.59980200000,公服,医疗设施
武溪市中医医院,114.29248000000,30.59106000000,公服,医疗设施
武汉市中医医院卒中中心,114.29235600000,30.59114800000,公服,医疗设施
武汉市中医医院-病案统计科,114.29274900000,30.59078300000,公服,医疗设施
长江航运总医院-脑卒中急救站,114.28146900000,30.60806700000,公服,医疗设施
吉美拉医疗整形,114.29528800000,30.60316200000,公服,医疗设施
阡美医疗美容(江汉路店),114.29189800000,30.59746900000,公服,医疗设施
111SKIN医疗美容皮肤科(武汉店),114.29656000000,30.58831800000,公服,医疗设施
爱思特医疗美容医院,114.29443900000,30.59342300000,公服,医疗设施
武汉市第二老年病医院,114.28410000000,30.60268200000,公服,医疗设施
武汉太医堂皮肤病医院-痤疮科,114.28510600000,30.60069900000,公服,医疗设施
武汉太医堂皮肤病医院-牛皮癣治疗中心,114.28507300000,30.60070800000,公服,医疗设施
武汉太医堂皮肤病医院-脱发治疗中心,114.28506900000,30.60071500000,公服,医疗设施
武汉太医堂皮肤病医院-疤痕修复科,114.28511400000,30.60071300000,公服,医疗设施
城市便捷武汉儿童医院香港路地铁站店,114.28149800000,30.60477800000,公服,医疗设施
市八医院,114.30015600000,30.60600100000,公服,医疗设施
荟丽医美整形,114.29759000000,30.60512900000,公服,医疗设施
倾美医疗美容,114.28724500000,30.59831200000,公服,医疗设施
武汉市第二老年病医院,114.28410600000,30.60268900000,公服,医疗设施
中域口腔门诊部,114.29391200000,30.59800800000,公服,医疗设施
武汉市江岸区妇幼保健院,114.29175700000,30.59272800000,公服,医疗设施
江岸区西马街社区卫生服务中心(高雄路),114.28224400000,30.59577000000,公服,医疗设施
武汉市江岸区人民医院,114.29021100000,30.59332900000,公服,医疗设施
江岸区大智街北社区卫生服务中心,114.28314300000,30.58720700000,公服,医疗设施
长江航运总医院急诊,114.28220000000,30.60793100000,公服,医疗设施
武汉太医堂中医院,114.28506400000,30.60065700000,公服,医疗设施
武汉佳洁口腔门诊部,114.28968900000,30.60437700000,公服,医疗设施
武汉市肛肠医院,114.30032500000,30.60596900000,公服,医疗设施
武汉市第八医院急诊科,114.30025900000,30.60599200000,公服,医疗设施
武汉市第八医院,114.30033800000,30.60602800000,公服,医疗设施
武汉市第八医院南院,114.29042800000,30.59335700000,公服,医疗设施
江岸鲍枫口腔诊所(黄石路),114.28603100000,30.58884700000,公服,医疗设施
湖北省中医药大学附属国医医院,114.29270500000,30.59092900000,公服,医疗设施
心理医院,114.28394700000,30.60828000000,公服,医疗设施
中国铁路武汉局集团有限公司武汉疾病预防控制所,114.29934100000,30.60416500000,公服,医疗设施
中共武汉铁路局武汉疾病预防控制所委员会,114.29905100000,30.60388900000,公服,医疗设施
湖北省脑科中心康复病区,114.29184000000,30.59167700000,公服,医疗设施
伊美尚(武汉)整形美容医院,114.29434000000,30.59338400000,公服,医疗设施
江岸周传楚口腔诊所,114.29357100000,30.58837100000,公服,医疗设施
武汉市第二中西医结合医院中船武汉672医院,114.28225600000,30.60586200000,公服,医疗设施
忠德心理医院门诊部,114.29609800000,30.59335500000,公服,医疗设施
江岸王德明口腔诊所,114.29713800000,30.59456100000,公服,医疗设施
武汉科德中医医院,114.30205400000,30.60363800000,公服,医疗设施
六医院东楼,114.28510700000,30.60260600000,公服,医疗设施
武汉市第六医院,114.28493700000,30.60245100000,公服,医疗设施
江岸丁先康口腔诊所,114.29236500000,30.59538300000,公服,医疗设施
绎君医疗美容,114.28746100000,30.59637500000,公服,医疗设施
武汉市妇女儿童医疗保健中心,114.28262300000,30.60607600000,公服,医疗设施
武汉市中医医院,114.29221900000,30.59087500000,公服,医疗设施
江岸高凡生中医骨科诊所,114.28561900000,30.58768000000,公服,医疗设施
武铁分局中心卫生防疫站,114.30291600000,30.60433000000,公服,医疗设施
江汉大学附属医院,114.28430100000,30.60260100000,公服,医疗设施
华中科技大学同济医学院附属武汉儿童医院门诊部,114.28211000000,30.60535200000,公服,医疗设施
武汉市儿童医院内科楼,114.28349400000,30.60657900000,公服,医疗设施
武汉市儿童医院外科楼,114.28258700000,30.60693100000,公服,医疗设施
122交通事故急救中心,114.28435300000,30.60261000000,公服,医疗设施
大智街韩家社区卫生服务站,114.28668900000,30.59177900000,公服,医疗设施
武汉中盛植发中心,114.27773700000,30.58771400000,公服,医疗设施
武汉同济生殖医学专科医院,114.29542600000,30.60158700000,公服,医疗设施
江岸区上海街社区卫生服务中心,114.29405600000,30.58741800000,公服,医疗设施
武汉市中医医院急诊,114.29240000000,30.59110900000,公服,医疗设施
洁利康口腔,114.28345700000,30.58670700000,公服,医疗设施
张锡进口腔诊所,114.29266700000,30.59443000000,公服,医疗设施
江岸区劳动街苗栗社区卫生服务站,114.28987100000,30.60197300000,公服,医疗设施
天申医疗美容(三阳路店),114.29451700000,30.60154300000,公服,医疗设施
王勇口腔诊所,114.28906300000,30.59226300000,公服,医疗设施
王德宝口腔,114.28936400000,30.59328800000,公服,医疗设施
天姿口腔门诊部(解放大道),114.28615300000,30.59512700000,公服,医疗设施
江岸王义圣口腔诊所,114.28367900000,30.58826300000,公服,医疗设施
伊美尚国际美容牙科医院,114.29409300000,30.59340300000,公服,医疗设施
江岸区一元街社区卫生服务中心,114.29766300000,30.59783100000,公服,医疗设施
武汉市第八医院-化验室,114.30023200000,30.60573400000,公服,医疗设施
章春兰内科门诊,114.29718400000,30.59455200000,公服,医疗设施
麟趾社区卫生服务站,114.29806800000,30.60301800000,公服,医疗设施
江岸区大智街保成社区卫生服务站,114.28527100000,30.58646700000,公服,医疗设施
江岸区四唯街社区卫生服务中心,114.30235200000,30.60381600000,公服,医疗设施
江汉大学口腔门诊部(球场路),114.28581600000,30.60397300000,公服,医疗设施
江岸区一元街同兴社区卫生服务站(黄兴路),114.29424900000,30.59145400000,公服,医疗设施
江岸徐少钦口腔科诊所,114.28087500000,30.59893200000,公服,医疗设施
江岸区疾病预防控制中心体检中心,114.29239400000,30.59001300000,公服,医疗设施
江岸王杰口腔诊所,114.28887000000,30.58996300000,公服,医疗设施
江岸宫小成口腔诊所,114.28388900000,30.59263000000,公服,医疗设施
江岸谢申江口腔诊所,114.29483500000,30.60393800000,公服,医疗设施
武汉市第八医院感染性疾病门诊,114.30003000000,30.60641400000,公服,医疗设施
武汉市妇幼保健院-综合楼,114.28273400000,30.60506100000,公服,医疗设施
武汉市儿童医院学术报告厅,114.28230800000,30.60701800000,公服,医疗设施
武汉市第六医院-肠道肝病门诊,114.28530200000,30.60225500000,公服,医疗设施
武汉博美医疗美容门诊部,114.28856500000,30.59365300000,公服,医疗设施
江汉大学口腔门诊部(解放大道),114.28140100000,30.58985500000,公服,医疗设施
武汉肽慕医疗美容门诊部,114.29263000000,30.59821500000,公服,医疗设施
陈继忠医疗美容,114.28198200000,30.60439100000,公服,医疗设施
武汉市第六医院-感染科门诊,114.28530200000,30.60225500000,公服,医疗设施
馨美光疗美容机构,114.27649000000,30.58592200000,公服,医疗设施
江岸区西马街社区卫生服务中心,114.28163800000,30.59613600000,公服,医疗设施
四唯街社区卫生服务中心公共卫生科,114.30062500000,30.60404900000,公服,医疗设施
江岸区大智街泰宁社区卫生服务站,114.28436100000,30.58884600000,公服,医疗设施
诠美医疗美容,114.29283300000,30.59709000000,公服,医疗设施
一元街社区卫生服务中心公共卫生科,114.29610400000,30.59808800000,公服,医疗设施
劳动街苗栗社区卫生服务站,114.28883800000,30.60072100000,公服,医疗设施
武汉仁明口腔门诊,114.28362100000,30.59657000000,公服,医疗设施
湖北省中西医结合医院中山分部,114.29175300000,30.59164400000,公服,医疗设施
武汉儿童医院,114.28263400000,30.60600200000,公服,医疗设施
武汉中城口腔门诊部,114.29410400000,30.59783700000,公服,医疗设施
武汉市第八医院-住院部,114.30040600000,30.60616000000,公服,医疗设施
武汉敏康口腔门诊部,114.29100300000,30.59729500000,公服,医疗设施
六医院门诊部,114.28425500000,30.60265400000,公服,医疗设施
长江航运总医院门诊楼,114.28203600000,30.60818200000,公服,医疗设施
武汉市中医医院住院部,114.29237800000,30.59097200000,公服,医疗设施
武汉市中医医院-门诊部,114.29245100000,30.59108200000,公服,医疗设施
陈继杰医疗美容,114.28200300000,30.60435500000,公服,医疗设施
天雅口腔,114.29761500000,30.59999600000,公服,医疗设施
武汉市急救中心中医医院急救站,114.29237500000,30.59109800000,公服,医疗设施
EasySmile牙齿隐形矫正诺尔口腔,114.28828800000,30.58780300000,公服,医疗设施
湖北中医药大学教学医院,114.28230600000,30.60799300000,公服,医疗设施
丽臻医疗美容,114.29554900000,30.60306300000,公服,医疗设施
武汉市第六医院行行政楼1,114.28560700000,30.60274300000,公服,医疗设施
武汉市第六医院住院三部,114.28495500000,30.60249400000,公服,医疗设施
御美媛医学美肤,114.28113400000,30.58843600000,公服,医疗设施
长江航务管理局疾病预防控制中心,114.29776600000,30.60641100000,公服,医疗设施
湖北中医药大学教学医院,114.30058400000,30.60557800000,公服,医疗设施
武汉市中医医院-心内科,114.29235500000,30.59105300000,公服,医疗设施
武汉市第六医院南楼,114.28470000000,30.60253800000,公服,医疗设施
江岸区中西结合医院,114.29021100000,30.59332900000,公服,医疗设施
武汉市江岸区疾病预防控制中心,114.29336600000,30.59226400000,公服,医疗设施
武汉市第八医院-肛肠病综合大楼,114.30009400000,30.60592000000,公服,医疗设施
武汉健美口腔门诊部,114.28527800000,30.59895500000,公服,医疗设施
武汉市中医医院-疮疡科,114.29235500000,30.59105300000,公服,医疗设施
武汉市第六医院急诊,114.28453300000,30.60227400000,公服,医疗设施
武汉市第六医院西楼,114.28434200000,30.60263400000,公服,医疗设施
武汉市第八医院1号楼,114.30073300000,30.60587000000,公服,医疗设施
武汉市第八医院3号楼,114.30010700000,30.60602600000,公服,医疗设施
武汉市第八医院4号楼,114.30039100000,30.60624500000,公服,医疗设施
武汉市第八医院6号楼,114.30012400000,30.60625600000,公服,医疗设施
武汉市第六医院住院一部,114.28465600000,30.60250500000,公服,医疗设施
武汉市第六医院消毒供应室,114.28542400000,30.60296900000,公服,医疗设施
武汉市儿童医院康复科,114.28205800000,30.60628000000,公服,医疗设施
武汉市儿童医院急诊,114.28234100000,30.60517300000,公服,医疗设施
江岸鲍枫口腔诊所(黄石路),114.28615400000,30.58883000000,公服,医疗设施
武汉太医堂中医皮肤病医院,114.28495500000,30.60066300000,公服,医疗设施
江岸区球场北社区卫生服务中心,114.28844200000,30.59630900000,公服,医疗设施
武汉轻工大学附属医院,114.28227900000,30.60797000000,公服,医疗设施
武汉市妇女儿童医疗保健中心综合业务楼,114.28225600000,30.60478900000,公服,医疗设施
武汉市儿童医院-功能训练室,114.28190500000,30.60650500000,公服,医疗设施
武汉市妇女儿童医疗保健中心-武汉市妇幼保健院,114.28280400000,30.60470000000,公服,医疗设施
武汉市急救中心光华路站,114.28430700000,30.60256100000,公服,医疗设施
武汉市中医医院国家中医重点专科项目急诊科,114.29260300000,30.59096700000,公服,医疗设施
美好佳口腔门诊部,114.28387100000,30.59909300000,公服,医疗设施
保健中心,114.28740300000,30.59587000000,公服,医疗设施
武汉市妇幼保健院门诊部,114.28202700000,30.60511700000,公服,医疗设施
锦颜秀医疗美容,114.28734200000,30.59833000000,公服,医疗设施
锦颜秀医疗美容门诊,114.28710300000,30.59829100000,公服,医疗设施
武汉亚韩整形外科医院,114.27650800000,30.60394600000,公服,医疗设施
武汉市中医医院国家中医重点专科项目脑病科,114.29219700000,30.59118000000,公服,医疗设施
中德心理医院,114.29606500000,30.59335100000,公服,医疗设施
美仑医疗美容,114.28559100000,30.59098800000,公服,医疗设施
思美妍,114.29082300000,30.59961100000,公服,医疗设施
格格屋医疗美容,114.28477200000,30.59904800000,公服,医疗设施
爱思特医疗美容,114.29411200000,30.59352200000,公服,医疗设施
武汉誉尚医疗美容门诊部,114.28857000000,30.59354300000,公服,医疗设施
武汉博美医疗美容门诊部,114.28856500000,30.59365300000,公服,医疗设施
一米阳光口腔门诊部,114.27678700000,30.60166900000,公服,医疗设施
美仑医疗美容门诊部,114.28562100000,30.59100000000,公服,医疗设施
保健中心,114.28661100000,30.59406000000,公服,医疗设施
武汉市中医医院治末病健康管理咨询中心,114.29225200000,30.59112000000,公服,医疗设施
武汉太医堂中医院预约挂号中心,114.28505800000,30.60066500000,公服,医疗设施
武汉太医堂中医院-皮肤科,114.28504700000,30.60064700000,公服,医疗设施
武汉市儿童医院皮肤科,114.28261000000,30.60578300000,公服,医疗设施
清华阳光口腔,114.28851500000,30.59346100000,公服,医疗设施
武汉晶雅口腔门诊部,114.29338300000,30.59332100000,公服,医疗设施
江汉大学口腔门诊部,114.28581600000,30.60397300000,公服,医疗设施
汉江大学附属医院,114.28555900000,30.60217300000,公服,医疗设施
江岸王圣松中医痔痿诊所,114.29745800000,30.59667200000,公服,医疗设施
武汉整形美容医院,114.28963200000,30.58922300000,公服,医疗设施
化蝶整形,114.29755400000,30.60509000000,公服,医疗设施
湖北中医药大学教学医院,114.29040400000,30.59342500000,公服,医疗设施
武汉江岸区皮肤病医院,114.28832300000,30.60522100000,公服,医疗设施
武汉市中医医院门诊病房综合楼,114.29242900000,30.59083400000,公服,医疗设施
武汉江岸区皮肤病医院,114.28687100000,30.59691800000,公服,医疗设施
武汉饶宠斌口腔门诊部,114.29706200000,30.59879200000,公服,医疗设施
武汉市第八医院-门诊部,114.30056300000,30.60570700000,公服,医疗设施
武汉大学hope护理学院临床教学医院,114.28280300000,30.60467900000,公服,医疗设施
武汉市急救中心惠济站,114.28207900000,30.60789600000,公服,医疗设施
湖北武汉长航脑科医院,114.28251800000,30.60783000000,公服,医疗设施
武汉市中心,114.29247500000,30.59803200000,公服,医疗设施
武汉市妇幼保健院,114.28281500000,30.60598100000,公服,医疗设施
武汉中瑞中医院,114.29657000000,30.59188300000,公服,医疗设施
武汉市儿童医院-综合业务楼,114.28332900000,30.60635700000,公服,医疗设施
劳动街社区卫生服务中心狂犬病暴露预防处置门诊,114.28925000000,30.60416500000,公服,医疗设施
湖北省青少年视力健康管理技术指导中心,114.27965700000,30.59140000000,公服,医疗设施
武汉市妇女儿童医疗保健中心香港路门诊部,114.28178700000,30.60581500000,公服,医疗设施
武汉市苗苗文化艺术培训学校(黄兴路),114.29151400000,30.59323900000,公服,教育设施
武汉市民族中学,114.29162000000,30.58995800000,公服,教育设施
曼罗国际舞蹈学院(汉口店),114.28157700000,30.59024000000,公服,教育设施
兴梓教育,114.28586200000,30.59821300000,公服,教育设施
武汉市中小学校长教师继续教育中心,114.29828500000,30.59271300000,公服,教育设施
梵林艺华艺术培训机构,114.29130300000,30.59075000000,公服,教育设施
成远化妆培训学校,114.28264400000,30.59771500000,公服,教育设施
武汉希望情商乐园走向成功少儿能力训练中心,114.27779300000,30.60430900000,公服,教育设施
武汉市江岸区教育科学研究所,114.28410000000,30.59453700000,公服,教育设施
武汉市能源发展规划研究中心,114.29555000000,30.58722000000,公服,教育设施
江岸区沈阳路小学(A区),114.29876500000,30.60633300000,公服,教育设施
六艺园教培创业孵化基地,114.29181300000,30.59303600000,公服,教育设施
华中科技大学同济医学院第六临床学院,114.28201400000,30.60515900000,公服,教育设施
英普教育,114.29183800000,30.59300500000,公服,教育设施
德邦教育,114.29798300000,30.60802800000,公服,教育设施
超智素质培训学校澳门路教学点,114.29028600000,30.60353800000,公服,教育设施
顶典教育,114.29328500000,30.59747100000,公服,教育设施
仁和会计培训(武汉香港路校区),114.28151200000,30.60358200000,公服,教育设施
武汉市六中致诚中学,114.28214500000,30.59704400000,公服,教育设施
LULU舞蹈工作室,114.27751900000,30.60812800000,公服,教育设施
新东方(大智路校区),114.29227500000,30.59278900000,公服,教育设施
武汉市七一中学,114.30157200000,30.60779200000,公服,教育设施
中国市政工程中南设计研究总院有限公司,114.30003300000,30.60446500000,公服,教育设施
一雅舞蹈工作室,114.29410800000,30.59345800000,公服,教育设施
铭新街小学,114.28459900000,30.58717000000,公服,教育设施
武汉睿思教育,114.28700500000,30.59369900000,公服,教育设施
江岸区吕锡三幼儿园,114.28534600000,30.59247600000,公服,教育设施
龙文教育(金门路校区),114.28373700000,30.59894200000,公服,教育设施
幸福花开(国学茶道店),114.27918300000,30.60533600000,公服,教育设施
学而思教育永清培训学校,114.28163200000,30.60369300000,公服,教育设施
江岸区一元路小学高年级教学部,114.29846000000,30.59670000000,公服,教育设施
思想者画室,114.29510000000,30.59712900000,公服,教育设施
王爸爸小饭桌,114.29411200000,30.60633900000,公服,教育设施
英百通英语绘本馆,114.28882900000,30.59338400000,公服,教育设施
四唯路小学-小学生托管班,114.30036900000,30.60177800000,公服,教育设施
武汉科学电源设备有限公司整流器研制中心,114.28205800000,30.59636400000,公服,教育设施
国家粮食和物资储备局设计院,114.29620300000,30.58706300000,公服,教育设施
童程童美少儿编程(大智路校区),114.29151100000,30.59325100000,公服,教育设施
纷彩画室,114.29565600000,30.59449600000,公服,教育设施
江岸区残疾人培训中心,114.28495600000,30.59262800000,公服,教育设施
蓝精灵创客科技活动中心天津路校区,114.29194000000,30.58734700000,公服,教育设施
武汉市关心下一代工作培训基地,114.27972500000,30.60447900000,公服,教育设施
武汉市第二十中学-鼓动琴行,114.29173900000,30.58986200000,公服,教育设施
小不点艺术,114.27680000000,30.59816300000,公服,教育设施
超智素质培训学校澳门路教学点,114.29029900000,30.60354800000,公服,教育设施
文都中小学(大智路校区),114.28669400000,30.59273000000,公服,教育设施
AIex儿童体验中心,114.29226300000,30.59806200000,公服,教育设施
慧之光幼儿园(苗栗路),114.29018600000,30.60307500000,公服,教育设施
尖锋教育(香港路校区),114.28467500000,30.59988900000,公服,教育设施
北京药王阁中医研究合作中心,114.29657300000,30.59185000000,公服,教育设施
古月藤文化艺术中心,114.28555800000,30.60633300000,公服,教育设施
启弘特教,114.29011500000,30.59580900000,公服,教育设施
启弘特殊儿童培训教育中心,114.28990900000,30.59567400000,公服,教育设施
桐荫画馆,114.29564600000,30.59452600000,公服,教育设施
舞名汇文化艺术中心,114.29551400000,30.59670900000,公服,教育设施
艺煌教育培训学校有限公司,114.28694200000,30.59213400000,公服,教育设施
恩吉拉国际早教中心,114.29123800000,30.58805900000,公服,教育设施
武汉市建设学校(汉口校区),114.28086500000,30.59451000000,公服,教育设施
星愿教育,114.28151800000,30.60729300000,公服,教育设施
米奇多艺术馆,114.29578000000,30.58733100000,公服,教育设施
拓璞学科英语,114.28641700000,30.59290900000,公服,教育设施
安特思库·上谷儿童成长馆,114.29399800000,30.59024000000,公服,教育设施
安特思库文化教育培训学校有限公司,114.29397600000,30.59027200000,公服,教育设施
小麦篮球学校,114.27675500000,30.58636200000,公服,教育设施
湖北省陆羽茶文化研究会妙香雅宜茶艺与品鉴培训中心,114.29744600000,30.60706600000,公服,教育设施
中国陈年白酒收藏鉴定培训中心,114.29139300000,30.58771100000,公服,教育设施
慧鑫通诺教育培训学校有限公司,114.29551400000,30.59671400000,公服,教育设施
上善造型职业培训学校,114.29542500000,30.58947600000,公服,教育设施
大卫画室美术培训学校,114.29503800000,30.60636800000,公服,教育设施
沈阳路小学B区,114.29919600000,30.60588700000,公服,教育设施
松鼠AI智适应教育(大智路校区),114.28636000000,30.59347700000,公服,教育设施
新文达中小学大智路校区,114.28675100000,30.59278200000,公服,教育设施
金子塔文化教育培训学校,114.28355400000,30.58934700000,公服,教育设施
东方巨龙教育汉口校区,114.29169800000,30.59389000000,公服,教育设施
橘子声乐工作室,114.29581800000,30.60215200000,公服,教育设施
武汉二中(实验中学校区),114.29428700000,30.59964100000,公服,教育设施
范德堡之家儿童发展中心,114.29507300000,30.59447200000,公服,教育设施
佳越美术小铺,114.29337900000,30.60301400000,公服,教育设施
新栋力教育,114.28718500000,30.58800100000,公服,教育设施
心田花开学校(三阳路校区),114.29689400000,30.60130000000,公服,教育设施
武汉卓锐培训学校,114.29699500000,30.60115500000,公服,教育设施
斯博特游泳培训(建设大道店),114.27912200000,30.60819800000,公服,教育设施
博才培训学校,114.29781000000,30.60762500000,公服,教育设施
金字塔培训学校,114.28575600000,30.59114500000,公服,教育设施
犇顶典教育,114.29272200000,30.59770700000,公服,教育设施
星蒲悦舞蹈,114.29687400000,30.59404000000,公服,教育设施
江岸区昌锡三小学,114.28423000000,30.59231200000,公服,教育设施
东方启音（武汉江岸中心）,114.28328800000,30.60387000000,公服,教育设施
武汉美妙教育(车站路校区),114.29333700000,30.59371700000,公服,教育设施
凯思琳教育培训中心,114.28674000000,30.59694000000,公服,教育设施
精锐教育大智路长青广场学习中心,114.29242500000,30.59264000000,公服,教育设施
思博莱学科英语,114.29188700000,30.59302900000,公服,教育设施
星愿儿童发展中心,114.28144800000,30.60379200000,公服,教育设施
艾瑞斯艺术工作室,114.28712000000,30.59341700000,公服,教育设施
五彩石英语培训,114.29177500000,30.59306000000,公服,教育设施
易贝乐少儿英语(长青广场校区),114.29151800000,30.59321600000,公服,教育设施
艺尚瑜伽舞蹈,114.28277000000,30.58577200000,公服,教育设施
XXS ART艺术工作室,114.29653900000,30.58823400000,公服,教育设施
童翼儿童艺术培训中心,114.29233500000,30.59429200000,公服,教育设施
智慧源引大脑潜能开发,114.29662100000,30.60290500000,公服,教育设施
小星星英语,114.28742500000,30.59804400000,公服,教育设施
新文达教育(大智路校区),114.28657200000,30.59281000000,公服,教育设施
星燕舞蹈,114.28720600000,30.59367000000,公服,教育设施
学智国际教育(青少年宫店),114.28050700000,30.59147300000,公服,教育设施
百川教育(青少年宫校区),114.28036700000,30.59163700000,公服,教育设施
呈康体育篮球培训中心(青少年宫校区),114.28038500000,30.59126000000,公服,教育设施
武汉市硚口区荆楚睿翼培训学校,114.29714700000,30.60189000000,公服,教育设施
东方启音（武汉江岸中心）,114.28136400000,30.60462000000,公服,教育设施
哆音美艺术培训中心(香港路店),114.28421100000,30.60121600000,公服,教育设施
中国人民大学武汉少年新闻学院(圣陶),114.29205600000,30.58860600000,公服,教育设施
天浩教育,114.28708100000,30.59224600000,公服,教育设施
乐曦艺术培训学校(三阳路校区),114.29614000000,30.59836000000,公服,教育设施
卓凡教育培训,114.28139700000,30.58744700000,公服,教育设施
成杰教育培训学校,114.30043600000,30.60543700000,公服,教育设施
天彩美术培训,114.29777800000,30.59257400000,公服,教育设施
爱加仁母婴护理培训中心,114.28141000000,30.58758600000,公服,教育设施
一星艺术培训,114.29605400000,30.59815000000,公服,教育设施
搏睿素质教育培训中心,114.28148000000,30.60474200000,公服,教育设施
武汉151调酒咖啡茶艺培训机构,114.28277200000,30.58577400000,公服,教育设施
武汉市创新研究会,114.29382300000,30.59064400000,公服,教育设施
演说佳,114.29197900000,30.59347300000,公服,教育设施
杨帆教育,114.28247600000,30.58572100000,公服,教育设施
琴悦钢琴艺术中心,114.28491400000,30.58680600000,公服,教育设施
七色风模特时尚艺术教育(汉口店),114.29419300000,30.59354100000,公服,教育设施
新之星影视教育,114.29171400000,30.59316300000,公服,教育设施
天浩教育,114.28708100000,30.59224600000,公服,教育设施
三牛英语(融科·天城3期店),114.29307600000,30.60032100000,公服,教育设施
艾克斯朗国际音乐学校,114.29498100000,30.60043600000,公服,教育设施
欧吉舞蹈(汉口店),114.28649400000,30.59840100000,公服,教育设施
金子塔教育,114.28584700000,30.59118600000,公服,教育设施
嫣苒瑜伽舞蹈,114.29586800000,30.59725200000,公服,教育设施
中国市政工程中南设计研究分院,114.29999700000,30.60441300000,公服,教育设施
小怪兽编程学院,114.29513000000,30.59735100000,公服,教育设施
Alex儿童逻辑思维体验中心,114.29226500000,30.59789000000,公服,教育设施
成长文化教育培训学校,114.28561800000,30.60670200000,公服,教育设施
阿斯顿英语(解放大道),114.28611900000,30.59504200000,公服,教育设施
武汉市江岸区模范路小学,114.28655800000,30.59974500000,公服,教育设施
光华路小学,114.28773000000,30.60721600000,公服,教育设施
吕锡三小学,114.28423600000,30.59229700000,公服,教育设施
江岸区西马幼儿园,114.28416100000,30.59483200000,公服,教育设施
武汉市江岸星光幼儿园,114.27763300000,30.59244100000,公服,教育设施
武汉市中小镇企业教育指导中心,114.28411600000,30.60784600000,公服,教育设施
武汉文华英语培训中心,114.28165000000,30.60744100000,公服,教育设施
武汉新澳教育培训中心(京汉大道),114.29708700000,30.60264300000,公服,教育设施
新澳电脑学校,114.29571600000,30.60336800000,公服,教育设施
武汉市第六初级中学,114.28617000000,30.60163300000,公服,教育设施
全国双语学习研究中心华中推广部,114.28165000000,30.60744100000,公服,教育设施
澳门路小学,114.29006900000,30.60473800000,公服,教育设施
武汉市江岸区澳门路幼儿园,114.29234300000,30.60466800000,公服,教育设施
武汉市白蚁防治研究所(建设大道),114.27876100000,30.60614900000,公服,教育设施
武汉市鲍氏珠心算培训学校,114.29289900000,30.58729200000,公服,教育设施
国家发展和改革委员会国家物资储备局设计院,114.29619500000,30.58710500000,公服,教育设施
武汉市规划编制研究和展示中心,114.29640000000,30.60043400000,公服,教育设施
武汉市实验初级中学(三阳路),114.29923400000,30.59922100000,公服,教育设施
娃娃英语武汉总部,114.28159600000,30.60485600000,公服,教育设施
武汉市文化局干部学校,114.29753000000,30.60756300000,公服,教育设施
武汉工交职业学院中专部,114.28146500000,30.59463900000,公服,教育设施
武汉市育才高级中学,114.29362100000,30.60545500000,公服,教育设施
成才培优学校,114.28152700000,30.58738900000,公服,教育设施
博才兴天下中学部博英校区,114.29775000000,30.60792800000,公服,教育设施
武汉市财贸学校(北区西门),114.28989700000,30.60129000000,公服,教育设施
武汉市财会干部教育中心,114.28161700000,30.59617700000,公服,教育设施
武汉语言文字培训测试中心,114.29841100000,30.59270900000,公服,教育设施
武汉市城市防洪勘测设计院,114.30188500000,30.60430100000,公服,教育设施
魅力之舞,114.28152700000,30.58738900000,公服,教育设施
希望幼儿园(公安街),114.29400200000,30.59650400000,公服,教育设施
湖北省邮电工程局勘察设计所,114.28672300000,30.60402900000,公服,教育设施
长青藤英文,114.28152700000,30.58738900000,公服,教育设施
国晨教育培训学校,114.30014700000,30.59879200000,公服,教育设施
楚天智尚教育,114.29708700000,30.60264300000,公服,教育设施
江北职教中心培训部会计证招生处,114.29646600000,30.60628200000,公服,教育设施
武汉市艺术创作研究中心(洞庭街),114.29731900000,30.59182400000,公服,教育设施
辽宁卫星生物制品研究所,114.27628300000,30.58614600000,公服,教育设施
湖北当代老龄科学研究院,114.27834100000,30.58725800000,公服,教育设施
艾舞舞蹈工作室,114.28152700000,30.58738900000,公服,教育设施
武汉火鸟舞蹈艺术交流中心,114.28711300000,30.58801100000,公服,教育设施
翼之舞舞蹈培训(合作路),114.29215800000,30.58825300000,公服,教育设施
武汉市城乡建设中等职业技术学校,114.28146500000,30.59463900000,公服,教育设施
武汉市中等职业艺术学校,114.29355800000,30.59196900000,公服,教育设施
武汉市第一初级中学,114.27595500000,30.58571700000,公服,教育设施
武汉市第十六中学,114.29487400000,30.59631800000,公服,教育设施
武汉市第三十中学,114.28213900000,30.59704200000,公服,教育设施
武汉市第二十中学,114.29116200000,30.58957400000,公服,教育设施
健康幼儿园(黎黄陂路),114.29518600000,30.58893600000,公服,教育设施
沈阳路小学,114.29876900000,30.60633100000,公服,教育设施
武汉市七一华源中学,114.30161500000,30.60787100000,公服,教育设施
武汉市解放中学,114.29593200000,30.60622100000,公服,教育设施
江岸英花幼儿园,114.28988900000,30.59713000000,公服,教育设施
江岸区机关五一幼儿园,114.27766700000,30.60425800000,公服,教育设施
六合路幼儿园,114.30305400000,30.60448400000,公服,教育设施
珞珈山幼儿园,114.29448400000,30.58991300000,公服,教育设施
武汉市卫计委幼儿园(暂停营业),114.28593100000,30.59145000000,公服,教育设施
新东方(三阳路校区),114.29686400000,30.59847100000,公服,教育设施
艾威尔(国际)音乐教育中心,114.29219100000,30.59796700000,公服,教育设施
江汉区西马路小学,114.28048700000,30.60487700000,公服,教育设施
武汉市政府法制研究中心,114.29752900000,30.59268700000,公服,教育设施
武汉新东方学校(惠济路),114.28171500000,30.60492500000,公服,教育设施
东方金字塔儿童潜能培训学校(京汉大道),114.28152700000,30.58738900000,公服,教育设施
武汉市纺织建筑设计所,114.29509400000,30.58730500000,公服,教育设施
武汉经理学院大信会计分院,114.28721000000,30.58790000000,公服,教育设施
武汉十六中翔宇分校,114.28889800000,30.60095800000,公服,教育设施
铭新街小学本校,114.28325800000,30.58644600000,公服,教育设施
黄冈中学网校武汉分校,114.28552400000,30.58629700000,公服,教育设施
尚智教辅托管中心,114.29364200000,30.58872200000,公服,教育设施
武汉歌舞剧院艺术培训学校,114.29703600000,30.60726200000,公服,教育设施
依格学科英语,114.29165600000,30.59735800000,公服,教育设施
乐高活动中心(青少年宫店),114.28006100000,30.59124600000,公服,教育设施
朗博翰管理培训咨询,114.28221300000,30.60363300000,公服,教育设施
武汉古筝艺术学校,114.29739400000,30.60736700000,公服,教育设施
武汉市规划研究院,114.29617900000,30.60048200000,公服,教育设施
武汉市土地利用和城市空间规划研究中心(三阳路),114.29633800000,30.60047000000,公服,教育设施
武汉市水利规划设计研究院(六合路),114.30188500000,30.60430100000,公服,教育设施
武汉市规划研究院荷兰ARCADIS联合研究中心,114.29577400000,30.60042300000,公服,教育设施
长江岩土工程总公司武汉分公司长江勘测规划设计研究院,114.29956700000,30.60832200000,公服,教育设施
警予中学,114.28594600000,30.59006600000,公服,教育设施
江汉大学(汉口校区),114.28489000000,30.60395300000,公服,教育设施
天地合文化艺术中心,114.29739400000,30.60736700000,公服,教育设施
武汉市实验小学,114.29034100000,30.59723300000,公服,教育设施
上海花行沪花缘培训中心,114.27851100000,30.58676100000,公服,教育设施
武汉209艺术培训中心(三阳校区总部),114.29578700000,30.60151700000,公服,教育设施
童画王国儿童映画社,114.28288000000,30.58759000000,公服,教育设施
慧思优培英语,114.28431700000,30.59945100000,公服,教育设施
武汉市城乡建设委员会教育培训中心(台北名居西北),114.28131200000,30.59463700000,公服,教育设施
武汉市六医院（江汉大学附属医院）,114.28479600000,30.60368200000,公服,教育设施
武汉市统计干部教育培训中心,114.30061500000,30.59616700000,公服,教育设施
武汉市房安建筑设计所,114.29641000000,30.59548400000,公服,教育设施
武汉市正信会计专修学校,114.29782600000,30.59568700000,公服,教育设施
武汉市民用建筑设计研究院,114.29348800000,30.58579600000,公服,教育设施
中信建筑设计研究总院,114.29945800000,30.60180800000,公服,教育设施
江汉大学继续教育学院,114.28478700000,30.60364300000,公服,教育设施
武汉新世纪教育科学研究所(蔡锷路),114.29857800000,30.59264700000,公服,教育设施
HI教育,114.28152700000,30.58738900000,公服,教育设施
明心教育(球场横街),114.28971400000,30.59807500000,公服,教育设施
至善教育,114.28609500000,30.59496400000,公服,教育设施
中国美术学院艺术考级机构美妙真璞书法学堂,114.29333900000,30.59377000000,公服,教育设施
湖北工业大学城建教学站,114.28146500000,30.59463900000,公服,教育设施
中南民族大学海洋教学区,114.28146500000,30.59463900000,公服,教育设施
武汉理工大学汉口教学站,114.28146500000,30.59463900000,公服,教育设施
湖北大学湖北职院教学站,114.28146500000,30.59463900000,公服,教育设施
巨人教育(六合新界分部),114.30236300000,30.60334900000,公服,教育设施
鄱阳街小学,114.29364900000,30.59097100000,公服,教育设施
武汉市英杰青少年艺术培训学校,114.28050800000,30.60450000000,公服,教育设施
武汉市优秀历史建筑研究所,114.29348800000,30.58579600000,公服,教育设施
龙文教育(大智路校区),114.29441600000,30.59869600000,公服,教育设施
中国电子信息产业集团公司信息技术研究院无线通信技术研发中心,114.30223100000,30.60034500000,公服,教育设施
武汉南电电力工程新技术研究所,114.27716400000,30.59688300000,公服,教育设施
湖北省商务厅研究室,114.27828000000,30.58979500000,公服,教育设施
武汉兴阳中医药研究所,114.30179500000,30.60581800000,公服,教育设施
武汉市水务科学研究院,114.30188500000,30.60430100000,公服,教育设施
武汉市抗体研究中心,114.29282300000,30.59079700000,公服,教育设施
武汉冶金研究所,114.30060900000,30.59678600000,公服,教育设施
武汉发展战略研究院,114.30143700000,30.59850700000,公服,教育设施
武汉市交通发展战略研究院(胜利街),114.30014700000,30.59879200000,公服,教育设施
武汉市粮油科学研究所,114.28526100000,30.59354100000,公服,教育设施
武汉科德肿瘤研究所,114.30194200000,30.60368500000,公服,教育设施
武汉市中医药研究所(黎黄陂路),114.29270500000,30.59090700000,公服,教育设施
巨人学校(京汉大道),114.28821400000,30.59321700000,公服,教育设施
人民艺术剧院(解放大道店),114.29739400000,30.60736700000,公服,教育设施
卡丽诗美发美容培训学校,114.28152700000,30.58738900000,公服,教育设施
马荣·凯瑞融科儿童国际学校,114.29336600000,30.59954200000,公服,教育设施
金科电脑培训,114.29660500000,30.60475500000,公服,教育设施
洛可可钢琴艺术中心,114.29270100000,30.59852300000,公服,教育设施
艾克斯朗国际音乐学校(三阳路校区),114.29464400000,30.60020200000,公服,教育设施
超智素质培训学校(劳动街),114.29402600000,30.60412000000,公服,教育设施
武汉六中上智中学,114.28319200000,30.59121300000,公服,教育设施
天彩少儿动漫,114.29776400000,30.59250000000,公服,教育设施
武汉市美术学校,114.29355700000,30.59196900000,公服,教育设施
365艺术培训中心,114.27743800000,30.60397100000,公服,教育设施
清风围棋(三阳路店),114.29715500000,30.60273900000,公服,教育设施
武汉市中学师资培训中心,114.28481900000,30.60361200000,公服,教育设施
武汉明天无忧职业培训学校,114.28146500000,30.59463900000,公服,教育设施
武汉市旅游培训中心,114.29239700000,30.58782900000,公服,教育设施
大卫·佩里英语中心,114.28602800000,30.59519700000,公服,教育设施
武汉市艺术学校,114.29813700000,30.59765700000,公服,教育设施
武汉怡心围棋社,114.29398200000,30.59645800000,公服,教育设施
青乔双语艺术幼儿园,114.27800100000,30.59444900000,公服,教育设施
武汉市群众艺术馆文化艺术培训中心,114.29289900000,30.58729200000,公服,教育设施
瑞文英语,114.28152700000,30.58738900000,公服,教育设施
瑞琪微软商业技术教育中心(CTEC),114.29034400000,30.60806000000,公服,教育设施
四唯路小学,114.30044100000,30.60201800000,公服,教育设施
武汉市江岸区圣乐幼儿园,114.29278600000,30.59619100000,公服,教育设施
台北艺术中心,114.27670500000,30.59883500000,公服,教育设施
武汉市江岸区康桥外语培训中心,114.28611900000,30.59504300000,公服,教育设施
贝婴喜幼教中心,114.28429600000,30.59948800000,公服,教育设施
中国建筑装饰协会培训中心武汉培训工作站,114.28146500000,30.59463900000,公服,教育设施
湖北美术培训中心招生办公室,114.30062800000,30.60196900000,公服,教育设施
江汉大学职业技术培训中心,114.28481900000,30.60361200000,公服,教育设施
武汉交通职业学院台北路校区,114.27915000000,30.59615400000,公服,教育设施
大智街老年学校,114.28309800000,30.58798900000,公服,教育设施
青美画室,114.29716800000,30.60255700000,公服,教育设施
清华紫光国际教育武汉培训中心,114.29579800000,30.60157600000,公服,教育设施
博雅教育(台东路),114.28427100000,30.59701600000,公服,教育设施
西马街老年大学,114.28559900000,30.59714400000,公服,教育设施
武汉小百花艺术培训学校,114.29739400000,30.60736700000,公服,教育设施
兴乐达艺术培训中心,114.28149100000,30.60472400000,公服,教育设施
中国银行湖北省分行培训中心,114.28069400000,30.60385000000,公服,教育设施
江岸区教育委员会中学教学研究室,114.29316800000,30.59720400000,公服,教育设施
武汉市江岸区一元路小学,114.29861800000,30.59463000000,公服,教育设施
武汉市江岸区成人中等专业学校(教校),114.29381000000,30.59210400000,公服,教育设施
武汉市江岸区社区教育学院,114.29364800000,30.59206500000,公服,教育设施
昂立国际教育武汉江岸学校,114.29299700000,30.59331100000,公服,教育设施
武汉市广播电视大学江岸区分校,114.29364800000,30.59206500000,公服,教育设施
昂立教育吉庆校区,114.28897900000,30.58970200000,公服,教育设施
武汉奥思教育(黄石路校区),114.28378900000,30.59107300000,公服,教育设施
奥星科教培训中心(大智校区),114.28707800000,30.59230000000,公服,教育设施
清大学习吧(京汉大道),114.29708700000,30.60264300000,公服,教育设施
武汉大卫画室精英班,114.29412100000,30.60700900000,公服,教育设施
湖大高等学历招办,114.29542600000,30.60363000000,公服,教育设施
天使宝贝幼儿园(京汉大道),114.28746000000,30.59258600000,公服,教育设施
武汉太医堂中医皮肤病研究院,114.28507800000,30.60064200000,公服,教育设施
美妙·丹朱棋艺俱乐部,114.29328300000,30.59368500000,公服,教育设施
阳光美语(大智路),114.28887700000,30.59359200000,公服,教育设施
湖北省城市文化工业研究会,114.28552400000,30.58629700000,公服,教育设施
英牛学府教育培训中心,114.29708700000,30.60264300000,公服,教育设施
新栋力教育,114.29706600000,30.60264800000,公服,教育设施
翰林园教育,114.28380400000,30.60340100000,公服,教育设施
弘文教育培训中心(京汉大道),114.29708700000,30.60264300000,公服,教育设施
常青藤教育培训中心,114.28162700000,30.58770700000,公服,教育设施
启橙学科英语(金地·琅目1903店),114.28666100000,30.59286300000,公服,教育设施
武汉市建设委员会教育培训中心,114.28197000000,30.59545200000,公服,教育设施
江汉大学离退休工作处,114.28177000000,30.59746300000,公服,教育设施
天籁琴行(话剧院店),114.29738200000,30.60691400000,公服,教育设施
武汉全盛对外经济技术合作有限公司日语培训中心,114.29274500000,30.58637000000,公服,教育设施
武汉龙门画室,114.29689700000,30.60736500000,公服,教育设施
博太艺术工作室,114.28725300000,30.60700400000,公服,教育设施
珈因早教,114.29027200000,30.60815900000,公服,教育设施
格伦多兰少儿英语,114.28804600000,30.59323800000,公服,教育设施
武汉市江岸区伊登教育培训学校,114.28804100000,30.59306700000,公服,教育设施
罗兰数字音乐学校(汉口大智校区),114.28801800000,30.59309800000,公服,教育设施
能动英语(大智路校区),114.28878800000,30.59345000000,公服,教育设施
武汉市交通发展战略研究院(四唯路),114.30012200000,30.60119300000,公服,教育设施
明星书院,114.29803800000,30.60176700000,公服,教育设施
金子塔教育汉口校区,114.28585900000,30.59121100000,公服,教育设施
剑桥少儿英语培训中心(中山大道),114.29328300000,30.59368500000,公服,教育设施
七彩教育(中山大道),114.29328300000,30.59368500000,公服,教育设施
希望教育(球场路),114.28673800000,30.60300800000,公服,教育设施
武汉市江岸区佳越美术培训学校,114.29347600000,30.60313500000,公服,教育设施
青少年宫小学,114.27610600000,30.59250700000,公服,教育设施
武汉铜钱格书画培训学校,114.28888800000,30.59531100000,公服,教育设施
武汉德天艺术研究所,114.29746200000,30.60710200000,公服,教育设施
秋实教育名师堂,114.28155000000,30.59677300000,公服,教育设施
龙文教育,114.28159000000,30.59622400000,公服,教育设施
武汉万能医药新技术科研中心,114.29414100000,30.60706600000,公服,教育设施
同行画室,114.29845700000,30.60027400000,公服,教育设施
武汉火鸟魔力时尚彩妆培训,114.28721000000,30.58790000000,公服,教育设施
鑫尚智教育,114.29198300000,30.58987700000,公服,教育设施
武汉市艺术创作研究中心(解放大道),114.29760900000,30.60731300000,公服,教育设施
慧泉教育(车站路校区),114.29161000000,30.59322000000,公服,教育设施
武汉市四十一中学,114.29969600000,30.60551600000,公服,教育设施
武汉市第六中学高中部,114.28563000000,30.60481700000,公服,教育设施
金太阳艺术幼儿园,114.28647300000,30.60656400000,公服,教育设施
智尚教育,114.28273800000,30.58861000000,公服,教育设施
武汉市实验初级中学,114.29413500000,30.59968300000,公服,教育设施
天天向上教育(光荣村),114.28208400000,30.59259600000,公服,教育设施
华大贝婴喜幼儿园,114.28422500000,30.59926600000,公服,教育设施
新智外语(英、法)培训学校,114.28716400000,30.60125900000,公服,教育设施
龙文教育(永清校区),114.30311500000,30.60572100000,公服,教育设施
武汉登科榜教育,114.28352000000,30.58925500000,公服,教育设施
武汉平成日本语培训学校(汉口分校),114.27620400000,30.58601300000,公服,教育设施
武汉歌舞剧院教学部,114.29584800000,30.60678300000,公服,教育设施
许可琴行,114.29419400000,30.60677500000,公服,教育设施
亿婴天使早期教育,114.28718000000,30.59252500000,公服,教育设施
皮个布早教(黄兴路),114.29151400000,30.59323900000,公服,教育设施
金思路教育(黎黄陂路),114.29584300000,30.58897700000,公服,教育设施
凡高画室,114.29329000000,30.59387500000,公服,教育设施
武汉市文史研究馆,114.28612100000,30.58768100000,公服,教育设施
阳仟桐艺考培训中心,114.29742400000,30.60739000000,公服,教育设施
武汉市少儿乒乓球培训中心(长青广场店),114.29177500000,30.59305700000,公服,教育设施
武汉市医学科学研究所,114.29277500000,30.59078000000,公服,教育设施
海伦英语,114.29841100000,30.60551200000,公服,教育设施
武汉和兴未来教育投资有限公司,114.29034500000,30.60806000000,公服,教育设施
优成教育,114.30171900000,30.60378800000,公服,教育设施
新优远,114.29584000000,30.59259300000,公服,教育设施
智慧苗·引领右脑(大智路校区),114.29151400000,30.59323900000,公服,教育设施
武汉市博弈棋类俱乐部,114.29236200000,30.58882000000,公服,教育设施
琅琅艺术(鄱阳街),114.29329800000,30.58820500000,公服,教育设施
琅琅教室,114.29326500000,30.58821300000,公服,教育设施
莫奈美术,114.29327900000,30.59368700000,公服,教育设施
海派舞蹈重点培训,114.29327600000,30.59363800000,公服,教育设施
星路舞蹈小主持人培训,114.29327600000,30.59363800000,公服,教育设施
哲杰教育(长青广场店),114.29296400000,30.59333000000,公服,教育设施
巨人培优(六合路),114.30215100000,30.60360400000,公服,教育设施
童心舞蹈小主持人艺术培训学校,114.29175700000,30.59272800000,公服,教育设施
武汉楚才之星培训中心,114.29175700000,30.59272800000,公服,教育设施
武汉图书馆教育培训中心,114.27641100000,30.60554800000,公服,教育设施
天诚素质教育(循礼门店),114.28152700000,30.58738900000,公服,教育设施
武汉市艺术学校舞美工作室,114.29667400000,30.60831600000,公服,教育设施
鄂城墩幼儿园,114.28517100000,30.59704500000,公服,教育设施
沈阳路小学(四唯校区),114.30047600000,30.60208300000,公服,教育设施
武汉市江岸区卫生局幼儿园,114.28700100000,30.59165100000,公服,教育设施
湖北合作经济与农村发展研究所,114.27847200000,30.58886800000,公服,教育设施
快思教育,114.28704500000,30.59227500000,公服,教育设施
武汉市鼎鑫职业技术学校,114.28961800000,30.59223700000,公服,教育设施
湖北省储备局,114.29618600000,30.58702900000,公服,教育设施
凤凰创意机器人,114.29627500000,30.60259200000,公服,教育设施
星火教育(三阳路校区),114.29616100000,30.60252400000,公服,教育设施
武汉市江岸区亿婴天使(武汉江岸中心),114.28700000000,30.59275100000,公服,教育设施
武汉市城乡建设职工中等专业学校,114.28199300000,30.59546300000,公服,教育设施
美妙真璞书法学堂(解放公园路店),114.29499600000,30.60632100000,公服,教育设施
尚城教育,114.27626600000,30.58616900000,公服,教育设施
东方启音(武汉汉口中心),114.28157300000,30.60503000000,公服,教育设施
武汉漂浮中学,114.29515000000,30.60660200000,公服,教育设施
海伦英语,114.29579800000,30.60157600000,公服,教育设施
新栋力教育,114.28389400000,30.59074400000,公服,教育设施
叮铛小画家现代儿童美术馆,114.29327600000,30.59363800000,公服,教育设施
武汉顶正餐饮创业平台,114.28615100000,30.58575100000,公服,教育设施
星火教育,114.29631200000,30.60261700000,公服,教育设施
乐道国学会馆,114.29617400000,30.60278700000,公服,教育设施
奥星·教育,114.28704800000,30.59196600000,公服,教育设施
中国市政工程中南设计研究分院,114.29678800000,30.60210400000,公服,教育设施
国画油画工作室,114.29153100000,30.59076200000,公服,教育设施
阿宝国际教育,114.29204600000,30.59783100000,公服,教育设施
爱宝儿童俱乐部,114.27583300000,30.58571900000,公服,教育设施
贝婴喜教育,114.28462100000,30.59945800000,公服,教育设施
武汉太医堂中医皮肤病研究院,114.28503800000,30.60072100000,公服,教育设施
翼秀星工厂(合作路总店),114.29212200000,30.58828500000,公服,教育设施
一星舞蹈培训(三阳路店),114.29596200000,30.59827000000,公服,教育设施
欧吉舞蹈(汉口店),114.29274500000,30.59311300000,公服,教育设施
AMEN舞汉舞蹈工作室,114.28550300000,30.58834500000,公服,教育设施
中英体育舞蹈(香港路),114.28326900000,30.60304400000,公服,教育设施
圣马丁艺术,114.29653400000,30.58824300000,公服,教育设施
柯莱文幼儿园,114.29604900000,30.59955400000,公服,教育设施
宝宝丽幼儿园,114.29282800000,30.59446700000,公服,教育设施
尼莫儿童艺术(汉口校区),114.29368500000,30.60016600000,公服,教育设施
袋鼠之家(中城国际店),114.29546600000,30.59698100000,公服,教育设施
武汉市经济法研究会,114.27983700000,30.60451400000,公服,教育设施
英皇钢琴芭蕾,114.29464300000,30.60020600000,公服,教育设施
汉口书法学堂,114.29331300000,30.59383800000,公服,教育设施
飞扬艺考培训,114.28208600000,30.59355800000,公服,教育设施
小小哈佛(苗栗路),114.29015100000,30.60300200000,公服,教育设施
思想者高考画室,114.29561000000,30.59736200000,公服,教育设施
瀛·音乐工作室,114.29413200000,30.58988900000,公服,教育设施
武汉市青少年宫艺术楼,114.28038500000,30.59125800000,公服,教育设施
众孚管理顾问有限公司培训研究中心,114.28020800000,30.59202700000,公服,教育设施
武汉管乐堂,114.29682100000,30.60657900000,公服,教育设施
宇凰国学馆(长青广场店),114.29151600000,30.59326400000,公服,教育设施
武汉市第六中学,114.28630800000,30.60521000000,公服,教育设施
银河油画艺术工作室,114.29200200000,30.59142400000,公服,教育设施
巨人培优(京汉大道),114.28851500000,30.59294500000,公服,教育设施
武汉市互联网舆情研究中心,114.29612400000,30.58689100000,公服,教育设施
武汉市博才培训学校三阳路校区,114.29354700000,30.60106900000,公服,教育设施
武汉市江岸区成长文化培训学校,114.28640200000,30.60662400000,公服,教育设施
振兴会计学校,114.27996100000,30.58940500000,公服,教育设施
亿婴天使早期教育机构(武汉江岸中心),114.28720200000,30.59239400000,公服,教育设施
武汉科技学院成人教育学院尚美教学点,114.27996100000,30.58940500000,公服,教育设施
树纹教育,114.29332500000,30.59381500000,公服,教育设施
无界外语教育,114.29512500000,30.60208000000,公服,教育设施
金思路文化教育培训学校有限公司,114.29372600000,30.59162100000,公服,教育设施
邦德艺考培训学校汉口校区,114.29735500000,30.60740900000,公服,教育设施
琅琅艺术(兰陵公馆店),114.29186000000,30.58959700000,公服,教育设施
小博士学能训练,114.29706600000,30.60264800000,公服,教育设施
名家提琴,114.29684000000,30.60660700000,公服,教育设施
菲那特艺术培训中心,114.28916600000,30.60468700000,公服,教育设施
中南设计院科研所,114.29489300000,30.60562300000,公服,教育设施
郎朗智能钢琴教室,114.27669500000,30.59774800000,公服,教育设施
未成年人教育基地,114.28855800000,30.60003000000,公服,教育设施
多多趣玩国际语言中心,114.29142100000,30.59330600000,公服,教育设施
自然美容学校,114.28121700000,30.59385000000,公服,教育设施
武汉市体适能协会青少年训练基地,114.29217000000,30.58826000000,公服,教育设施
几米的笔艺术梦工厂,114.29447000000,30.59682200000,公服,教育设施
大卫艺海音乐画室美术培训中心,114.29513500000,30.60632800000,公服,教育设施
思想者画室,114.29236600000,30.59417700000,公服,教育设施
龙文教育,114.28159000000,30.59622400000,公服,教育设施
武汉金钟艺术学校(苗栗路店),114.28390900000,30.59871200000,公服,教育设施
素颜美半永久美妆商学院(大智路店),114.28704200000,30.59248000000,公服,教育设施
星宇琴行(台北路),114.28271400000,30.59287400000,公服,教育设施
莫扎艺术殿堂,114.29232400000,30.59957900000,公服,教育设施
全学科英语,114.28658200000,30.59262000000,公服,教育设施
北京龙文教育(永清校区),114.29993100000,30.60669800000,公服,教育设施
慧文教育,114.29330300000,30.59368200000,公服,教育设施
武汉市城市建筑设计院,114.29894600000,30.60125600000,公服,教育设施
武汉市江岸区梦园幼儿园,114.30102400000,30.60330800000,公服,教育设施
中信设计研究总院有限公司,114.29955900000,30.60151900000,公服,教育设施
阳光喔作文(解放公园校区),114.30062800000,30.60395100000,公服,教育设施
明心教育,114.29779900000,30.60174900000,公服,教育设施
长青·六艺园(长青广场店),114.29155900000,30.59314800000,公服,教育设施
武汉现代管理科学研究会,114.29204100000,30.58729500000,公服,教育设施
家教园私人订制学习管理中心(永清店),114.29988200000,30.60664900000,公服,教育设施
健康幼儿园(洞庭街),114.29544300000,30.58911900000,公服,教育设施
可佳多24小,114.28807800000,30.58843600000,公服,教育设施
龙文培训学校有限公司大智路分公司,114.29071400000,30.59758200000,公服,教育设施
启慧特教,114.28996300000,30.59556700000,公服,教育设施
乐道国学会馆,114.29609800000,30.60248400000,公服,教育设施
伊嘉儿数学,114.29327900000,30.59364000000,公服,教育设施
优佳加智能教育香港路校区,114.28153300000,30.60487200000,公服,教育设施
丽西·羽西彩妆美容学校,114.27996100000,30.58940500000,公服,教育设施
星语卓萌艺术培训中心,114.29448300000,30.59549900000,公服,教育设施
武汉轻工建筑设计院,114.28546300000,30.58629600000,公服,教育设施
希望岛特殊教育(香港路校区),114.28513100000,30.60036700000,公服,教育设施
一朵艺术中心,114.29132800000,30.59079500000,公服,教育设施
大卫画室美术艺海音乐培训中心,114.29499500000,30.60639600000,公服,教育设施
小魔方大画室,114.27986100000,30.59135600000,公服,教育设施
鄱阳街小学(分校),114.29346700000,30.59061500000,公服,教育设施
1教育融科校区,114.29276300000,30.59822000000,公服,教育设施
万科社区营地,114.28754100000,30.59787500000,公服,教育设施
乐学教育艺术生文化课(大智路校区),114.28706600000,30.59344100000,公服,教育设施
如水教育(六合路校区),114.30177200000,30.60375600000,公服,教育设施
德邦教育,114.29736900000,30.60783200000,公服,教育设施
炎培教育(长青广场店),114.29183200000,30.59302300000,公服,教育设施
新东方培训学校(华清园校区),114.29552400000,30.59872700000,公服,教育设施
武汉市江岸区天晟爱诺教育培训中心,114.28669200000,30.59271200000,公服,教育设施
武汉市江岸区奥新科教培训中心,114.28697200000,30.59222200000,公服,教育设施
朝阳天教育培训学校,114.28603800000,30.59502800000,公服,教育设施
诚睿教育(京汉大道店),114.28804500000,30.59307000000,公服,教育设施
马特童学儿童之家,114.29586900000,30.58729200000,公服,教育设施
米蒙星空,114.29332100000,30.59378100000,公服,教育设施
暖岛画室,114.29386500000,30.58940500000,公服,教育设施
高优登教育,114.28667700000,30.59302400000,公服,教育设施
千米手机维修培训中心,114.28997100000,30.58954800000,公服,教育设施
蒙妮坦湖北美容化妆美甲培训学校,114.27607700000,30.58619700000,公服,教育设施
世家如画国际美术教育,114.29331400000,30.59383700000,公服,教育设施
巨人学校,114.29153200000,30.59323200000,公服,教育设施
心翔教育,114.28775300000,30.59249500000,公服,教育设施
武汉市江岸区教育局中学教研室,114.28409400000,30.59453200000,公服,教育设施
武汉市江岸区教育局小学教研室,114.28409400000,30.59453200000,公服,教育设施
大树儿童创意画室,114.29570800000,30.60726300000,公服,文化设施
向德金书画工作室,114.28946300000,30.59717500000,公服,文化设施
白日游Daywalker自由艺术馆,114.29403700000,30.59164800000,公服,文化设施
海峡两岸生活文化馆,114.28206700000,30.59066100000,公服,文化设施
环宇汉森文化传媒有限公司,114.28823600000,30.58880800000,公服,文化设施
奈趣消蜕气球艺术展,114.29105300000,30.59606700000,公服,文化设施
未来芯机器人科技创意中心,114.29613300000,30.60252600000,公服,文化设施
啊哈编程星球三阳路校区,114.29528000000,30.60299100000,公服,文化设施
中共中央宣传部旧址暨瞿秋白旧居陈列馆,114.28718900000,30.58886300000,公服,文化设施
也去学教育培训,114.29972700000,30.60254700000,公服,文化设施
武汉伟博视光学研究所,114.28152300000,30.58738700000,公服,文化设施
博才兴天下培训学校(永清校区),114.29777300000,30.60793000000,公服,文化设施
宝丽金阡美医疗培训部,114.28361800000,30.58593100000,公服,文化设施
武汉优佳加感统训练机构(香港路校区),114.28147800000,30.60510200000,公服,文化设施
新胜赢驾校大智路训练场,114.28825400000,30.59168900000,公服,文化设施
武汉今培风儿童感统训练中心,114.28326900000,30.60407800000,公服,文化设施
新一代教育培训中心,114.29560000000,30.60166400000,公服,文化设施
武汉市江岸区教育科学研究所,114.28410000000,30.59453700000,公服,文化设施
武汉市能源发展规划研究中心,114.29555000000,30.58722000000,公服,文化设施
M Lab分子实验室,114.30312500000,30.60545300000,公服,文化设施
京汉1903气泡实验室,114.28651400000,30.59270100000,公服,文化设施
bubble lab气泡实验室(京汉1903店),114.28648700000,30.59266300000,公服,文化设施
武汉市解放中学-儒一枫艺术,114.29604600000,30.60654000000,公服,文化设施
湖北省非物质文化遗产传承示范基地,114.29779700000,30.60757100000,公服,文化设施
武汉美术馆-青少年艺术教育中心,114.28760100000,30.58635400000,公服,文化设施
莫林艺树家,114.29170600000,30.59751900000,公服,文化设施
弦艺古筝吉他工作室,114.29497600000,30.60057400000,公服,文化设施
一星艺术连锁培训中心(三阳路店),114.29603300000,30.59818700000,公服,文化设施
墨尔艺术,114.29277900000,30.59106400000,公服,文化设施
博雅苑艺术画廊,114.29131000000,30.59029700000,公服,文化设施
T9商业艺术中心,114.29070800000,30.59581800000,公服,文化设施
中华少年强童军教育大本营,114.29156500000,30.58944500000,公服,文化设施
启慧幼儿园,114.29000500000,30.60358900000,公服,文化设施
半岛蒙特梭利幼儿园,114.29319300000,30.58994800000,公服,文化设施
上善教育,114.29550400000,30.58949300000,公服,文化设施
卓越教育,114.29540300000,30.60185300000,公服,文化设施
青藤卓立教育,114.29539700000,30.60185100000,公服,文化设施
F-one少儿戏剧影视教育中心,114.29659300000,30.58917100000,公服,文化设施
武汉慧通教育,114.29549100000,30.59702600000,公服,文化设施
优佳加智能教育汉口旗舰校区,114.28327600000,30.60300700000,公服,文化设施
维思慧教育,114.29091800000,30.59581300000,公服,文化设施
江岸区尚智荟教育培训学校,114.28769400000,30.60278800000,公服,文化设施
①泛美术教育,114.29321000000,30.59371200000,公服,文化设施
园林设计院建筑分院,114.29660100000,30.59199200000,公服,文化设施
武汉测绘院,114.28509300000,30.60690200000,公服,文化设施
融包海南城市展厅,114.29455500000,30.59988000000,公服,文化设施
众独沉浸式自习室(大智无界店),114.28958100000,30.59260300000,公服,文化设施
中华小儿外科杂志,114.29250200000,30.58973000000,公服,文化设施
长江日报智能文化驿站,114.29291800000,30.59484100000,公服,文化设施
红杉树智能英语,114.29867800000,30.60585300000,公服,文化设施
武汉市第二十中学-大智画室,114.29137200000,30.59008700000,公服,文化设施
武汉二中广雅中学,114.29965400000,30.60582900000,公服,文化设施
武汉市第二初级中学(胜利街校区),114.29846300000,30.59670700000,公服,文化设施
武汉市公共自行车武汉六中站,114.28634500000,30.60628600000,公服,文化设施
中国市政工程中南设计研究总院有限公司,114.30003300000,30.60446500000,公服,文化设施
中国市政工程中南设计研究总院有限公司新楼,114.29986700000,30.60420900000,公服,文化设施
武汉地铁自助图书馆,114.27923000000,30.58793800000,公服,文化设施
长江日报报业集团长江报业发行总公司武汉天地发行站,114.29988500000,30.59755400000,公服,文化设施
武汉市总工会新闻中心,114.28007100000,30.59036300000,公服,文化设施
雅华书院(长青广场店),114.29162900000,30.59316200000,公服,文化设施
长江书画院,114.28540900000,30.58625600000,公服,文化设施
楚清风教育培训学校,114.29179000000,30.59309900000,公服,文化设施
色猫舞蹈工作室,114.28992000000,30.58947800000,公服,文化设施
国际创作中心,114.29545900000,30.60305400000,公服,文化设施
阿拉蓓诗芭蕾国际舞蹈中心,114.29171000000,30.59380700000,公服,文化设施
武汉209美术培训中心(209画室总部),114.29579400000,30.60151900000,公服,文化设施
御乔画馆,114.29583300000,30.59418500000,公服,文化设施
文泽尔私人图书馆,114.28361800000,30.58591500000,公服,文化设施
安泰福传媒,114.28904700000,30.58896700000,公服,文化设施
武汉市台北路学校,114.28883400000,30.60085900000,公服,文化设施
快乐晃晃室,114.27610000000,30.59803300000,公服,文化设施
江岸区少年儿童图书馆,114.28623600000,30.58590400000,公服,文化设施
懿汇艺术空间,114.29408700000,30.59270400000,公服,文化设施
BrickS Lab积木实验室,114.28651800000,30.59328300000,公服,文化设施
棒棒贝贝科技中心(M+购物中心店),114.28020700000,30.58585800000,公服,文化设施
琴雅阁画廊,114.29164600000,30.59012000000,公服,文化设施
奕澄围棋,114.29162600000,30.59319400000,公服,文化设施
江岸区澳门路小学妈妈一站,114.28982300000,30.60494000000,公服,文化设施
看声音studio流行声乐工作室,114.29588100000,30.60160100000,公服,文化设施
蓝盾驾校培训基地,114.28435400000,30.59008700000,公服,文化设施
明涛驾校新天地训练场,114.30183500000,30.60645300000,公服,文化设施
他山书院,114.29161900000,30.59238300000,公服,文化设施
珞格美术馆,114.29043400000,30.59193300000,公服,文化设施
桀曦时尚文化艺术中心,114.28533400000,30.58979800000,公服,文化设施
武汉1978艺术空间,114.29599000000,30.60232400000,公服,文化设施
曼罗舞蹈生活馆,114.29645000000,30.58933600000,公服,文化设施
武汉壶锦轩紫砂艺术中心,114.28743900000,30.60291700000,公服,文化设施
明涛驾校报名点,114.30144300000,30.60619900000,公服,文化设施
简易乐教育,114.27642500000,30.58595200000,公服,文化设施
晶睿大语文,114.29846600000,30.60552600000,公服,文化设施
馥芳母婴培训基地,114.29021000000,30.58649100000,公服,文化设施
托马斯学习馆(三阳路校区),114.29172400000,30.59754500000,公服,文化设施
快学教育(汉口天地校区),114.29831900000,30.60538800000,公服,文化设施
莫北羊肉青少年宫,114.28037400000,30.59157800000,公服,文化设施
vipJr青少年在线教育,114.28646700000,30.59420000000,公服,文化设施
武汉市戏曲传承发展研究中心,114.29595500000,30.60794500000,公服,文化设施
汉口中共中央宣传部旧址暨瞿秋白旧居陈列馆,114.28718500000,30.58886100000,公服,文化设施
万奇儿童成长中心(香港路8号店),114.28750400000,30.59778700000,公服,文化设施
国际托班,114.29538900000,30.59724000000,公服,文化设施
武汉科学电源设备有限公司整流器研制中心,114.28205800000,30.59636400000,公服,文化设施
国家粮食和物资储备局设计院,114.29620300000,30.58706300000,公服,文化设施
武汉土拨鼠文化传播有限公司,114.29389700000,30.60180300000,公服,文化设施
武汉空天文化传播有限公司,114.29201400000,30.58726100000,公服,文化设施
武汉尚印文化传播有限公司,114.29407700000,30.58645800000,公服,文化设施
松石博物,114.29441300000,30.58964400000,公服,文化设施
武汉警察博物馆,114.29870000000,30.59710200000,公服,文化设施
武汉美视极文化传媒有限公司,114.29195100000,30.59897300000,公服,文化设施
武汉博思堂龙吟文化传媒有限公司,114.28358200000,30.58590100000,公服,文化设施
天莫传媒,114.29316100000,30.58682500000,公服,文化设施
武汉土巴鼠文化传媒有限公司,114.29398500000,30.60178200000,公服,文化设施
单词突击体验中心,114.29519800000,30.60635200000,公服,文化设施
NSC舞蹈工作室,114.28486900000,30.59789400000,公服,文化设施
凤凰湖北频道,114.28354600000,30.58584200000,公服,文化设施
陶声依旧陶笛工作室,114.28748600000,30.59636500000,公服,文化设施
及第学堂,114.29334100000,30.59376700000,公服,文化设施
江汉大学卫生职业技术学院,114.28546300000,30.60380000000,公服,文化设施
中国音乐学院考级点,114.29206800000,30.58966700000,公服,文化设施
中国美术学院考级点,114.29122800000,30.59065300000,公服,文化设施
叮铛ART国际美术教育,114.29143100000,30.59337200000,公服,文化设施
武汉市都优文化教育培训学校有限公司,114.28829900000,30.58797300000,公服,文化设施
浪丘英语阅读空间(融科店),114.29528100000,30.60103500000,公服,文化设施
闻一多立德树人研究中心,114.28167000000,30.59751400000,公服,文化设施
凡思教育集团武汉二校,114.27876500000,30.60748700000,公服,文化设施
北京药王阁中医研究合作中心,114.29657300000,30.59185000000,公服,文化设施
龚老师数学,114.28620400000,30.60042600000,公服,文化设施
德加画廊,114.29186400000,30.59131400000,公服,文化设施
一点马高考名师机器人,114.29505300000,30.60636200000,公服,文化设施
兰剑驾校大型训练场,114.28764600000,30.59090300000,公服,文化设施
胜赢驾校,114.30021600000,30.60341200000,公服,文化设施
起陆教育(武汉校区),114.28163900000,30.58702400000,公服,文化设施
精锐教育三阳路学习中心,114.29703100000,30.60114600000,公服,文化设施
中国青年新闻记者学会历史陈列馆,114.28888200000,30.58896200000,公服,文化设施
芝麻街英语(三阳路铂仕汇校区),114.29716900000,30.60187300000,公服,文化设施
明星培优,114.29747100000,30.60185600000,公服,文化设施
兴天下培训学校,114.29342400000,30.60113200000,公服,文化设施
三书培优,114.29228300000,30.59359900000,公服,文化设施
武汉十六中球场校区,114.28889700000,30.60089000000,公服,文化设施
真人在线英语外教,114.28391000000,30.59111500000,公服,文化设施
树童英语(湖北武汉江岸胜利街中心),114.29122000000,30.58806500000,公服,文化设施
武汉市江岸区英普文化教育培训学校,114.29189800000,30.59321800000,公服,文化设施
西商红楼美术馆,114.29576700000,30.60825600000,公服,文化设施
武汉市江岸区好学盛华文化教育培训学校有限公司,114.28129000000,30.60465000000,公服,文化设施
star未来学院,114.28389600000,30.59864900000,公服,文化设施
捷升辉越教育,114.28653300000,30.59288100000,公服,文化设施
中信建筑设计研究总院有限公司第八设计院,114.29953500000,30.60150700000,公服,文化设施
武汉记忆·唐朝阁楼博物馆,114.29498700000,30.59143900000,公服,文化设施
科沃斯机器人服务中心,114.28221600000,30.59266500000,公服,文化设施
马斯特培训教室,114.28761100000,30.58667300000,公服,文化设施
武汉市实验学校,114.29829100000,30.59696300000,公服,文化设施
尼米双语早托中心(大智嘉园店),114.28774100000,30.59262300000,公服,文化设施
上知教育(大智无界店),114.28977400000,30.59226600000,公服,文化设施
荟德儿童学苑,114.28684700000,30.59038800000,公服,文化设施
壹米艺术(大智路店),114.29178200000,30.59389300000,公服,文化设施
启慧教育,114.28992400000,30.60358900000,公服,文化设施
武汉西柚英语,114.29717300000,30.60193800000,公服,文化设施
武汉新栋力文化传播有限公司,114.28368600000,30.59067800000,公服,文化设施
武汉基梯文化传播有限公司,114.28183600000,30.60444600000,公服,文化设施
博曼克Boom music音乐工作室学唱歌&器乐(循礼门店),114.28146000000,30.58742600000,公服,文化设施
武汉市卫生健康委员会幼儿园,114.28627200000,30.59142700000,公服,文化设施
泛泰文化馆,114.29596400000,30.60178300000,公服,文化设施
上来省广电中心,114.28360000000,30.58589300000,公服,文化设施
众森教育,114.27611100000,30.58617400000,公服,文化设施
泽诚精品画室,114.28016200000,30.60615200000,公服,文化设施
沐马美术馆,114.27584300000,30.58745900000,公服,文化设施
KAO铺六中店,114.28550100000,30.60449500000,公服,文化设施
武汉教育人才服务中心,114.29842200000,30.59278300000,公服,文化设施
翰林学苑教育(香港路),114.28365400000,30.60374000000,公服,文化设施
原话剧院艺术学校,114.29741900000,30.60717100000,公服,文化设施
武汉市规划设计研究院区域所,114.29577400000,30.60041300000,公服,文化设施
造物公园,114.28386100000,30.58778900000,公服,文化设施
天幼儿园,114.28624200000,30.59503000000,公服,文化设施
樱乐传媒,114.29390500000,30.58646000000,公服,文化设施
武汉博倾城文化传播有限公司,114.29683600000,30.58901600000,公服,文化设施
武汉市目遇文化传媒有限公司,114.29634300000,30.58838100000,公服,文化设施
星河瑜伽舞蹈,114.29332400000,30.59369100000,公服,文化设施
梦马艺术,114.29163800000,30.59326300000,公服,文化设施
湖北明心书院(汉口),114.29786900000,30.60187200000,公服,文化设施
乐斯国际音乐中心旗舰校区,114.27588200000,30.58756700000,公服,文化设施
乐博趣机器人,114.29656100000,30.59812000000,公服,文化设施
浅深武汉地区培训中心,114.29441700000,30.59769500000,公服,文化设施
随时关张,114.29514800000,30.59173900000,公服,文化设施
蓝星驾校,114.28945000000,30.59837500000,公服,文化设施
豆博士第二课堂教育,114.29854300000,30.60586900000,公服,文化设施
天地元文化传媒有限公司,114.28281400000,30.60358700000,公服,文化设施
新艺考传媒备考学校,114.28724200000,30.59332300000,公服,文化设施
虎舍,114.29491200000,30.59173900000,公服,文化设施
方元自习空间,114.29585700000,30.60163000000,公服,文化设施
衍果设计培训(大智路校区),114.29232800000,30.59423600000,公服,文化设施
何老师美术课(长青广场店),114.29314400000,30.59383300000,公服,文化设施
二维一城传媒,114.29593900000,30.60182300000,公服,文化设施
武汉楚天兰蕙文化传播有限公司,114.27601000000,30.60477100000,公服,文化设施
武汉米房文化传播有限公司,114.29233500000,30.59429200000,公服,文化设施
武汉恒瑞文化传播有限公司,114.29522300000,30.60199900000,公服,文化设施
小小科学家活动中心(青少年宫活动中心店),114.28007800000,30.59178000000,公服,文化设施
锦绣会议厅,114.27656200000,30.58661900000,公服,文化设施
魅+肚皮舞馆,114.28357400000,30.60355200000,公服,文化设施
中国市政工程中南设计研究总院有限公司博士后科研工作站,114.29998400000,30.60440600000,公服,文化设施
童程童美(江岸校区),114.29203900000,30.59343700000,公服,文化设施
学乐传媒,114.28734600000,30.59337400000,公服,文化设施
船舶国际广场-会议室,114.28141700000,30.58851000000,公服,文化设施
武汉常新欣文化传媒有限公司,114.28548400000,30.58636600000,公服,文化设施
长江航道局规划基建处,114.29522300000,30.60199900000,公服,文化设施
中国龙观天下文化艺术品馆,114.29471500000,30.59195900000,公服,文化设施
台湾康宁大学-武汉联络处,114.29535200000,30.60319100000,公服,文化设施
ck体育篮球培训公司,114.27985800000,30.59152200000,公服,文化设施
环宇汉森DJ学院(江岸分店),114.28826300000,30.58883500000,公服,文化设施
奇点物理,114.29474300000,30.59754800000,公服,文化设施
ck体育篮球培训公司,114.27985800000,30.59152200000,公服,文化设施
安培教育(江岸区分公司),114.27625400000,30.59853200000,公服,文化设施
姚飞国学推广语商工作室,114.29169600000,30.59403400000,公服,文化设施
乐道国学生活馆,114.29614800000,30.60246600000,公服,文化设施
武汉魔可影视文化传媒有限公司,114.29654100000,30.58824000000,公服,文化设施
硕学教育,114.27647000000,30.58571300000,公服,文化设施
江城明珠驾校训练场,114.28515600000,30.58842800000,公服,文化设施
优佳加感统训练中心(汉口旗舰校区),114.28321000000,30.60292900000,公服,文化设施
优佳感觉综合智能训练中心,114.28147800000,30.60510200000,公服,文化设施
楚穹羽毛球培训(合作路分部),114.29256500000,30.58847300000,公服,文化设施
武汉市江岸区也去学文化教育培训学校有限公司,114.29967200000,30.60248600000,公服,文化设施
武汉市创新研究会,114.29382300000,30.59064400000,公服,文化设施
CoolsDream美学研发中心,114.29196800000,30.59212300000,公服,文化设施
湖北省城镇给水排水和水环境工程技术研究中心,114.29989300000,30.60440200000,公服,文化设施
西门街阳光家园残疾人之家,114.28647200000,30.60214800000,公服,文化设施
华中科技大学同济医学院生殖学中心,114.29586100000,30.60159600000,公服,文化设施
藏艺阁画廊,114.29194400000,30.59149800000,公服,文化设施
武汉汇豪大酒店-会议中心,114.28177700000,30.58848100000,公服,文化设施
爱乐知声音乐文化中心,114.28468100000,30.59589800000,公服,文化设施
引领右脑潜能开发机构,114.29169600000,30.59403300000,公服,文化设施
武汉欢乐非洲鼓课堂,114.28729200000,30.59338900000,公服,文化设施
乐曦影视教育(三阳路店),114.29670900000,30.59919900000,公服,文化设施
奥斯卡影视文化传媒,114.29815300000,30.60707100000,公服,文化设施
武汉歌迷传媒有限公司,114.28900800000,30.58883100000,公服,文化设施
武汉菲玛仕传媒有限公司,114.30168400000,30.59922200000,公服,文化设施
江苏省交通规划设计院湖北(武汉)办事处,114.29527900000,30.60188800000,公服,文化设施
武汉公共自行车武汉美术馆站,114.28757500000,30.58709100000,公服,文化设施
妇幼楼,114.28282300000,30.60468500000,公服,文化设施
武汉市自然资源和规划档案馆,114.29918900000,30.59931400000,公服,文化设施
武汉轻工建筑设计院,114.28545300000,30.58633300000,公服,文化设施
湖北省曁武汉市非物质文化遗产保护项目荆楚国漆(大漆)艺术品展示馆,114.28038100000,30.58893100000,公服,文化设施
中国市政工程中南设计研究分院,114.29999700000,30.60441300000,公服,文化设施
艺术角,114.28878300000,30.58830100000,公服,文化设施
武汉信诺教育三阳路校区,114.29549200000,30.59672400000,公服,文化设施
武汉成人学历报考服务中心(硕学教育),114.27644100000,30.58597700000,公服,文化设施
江岸区少年儿童图书馆,114.29675200000,30.59445900000,公服,文化设施
江岸区图书馆,114.28619800000,30.58592500000,公服,文化设施
武汉市江岸区七彩青少年空间,114.28541000000,30.58979100000,公服,文化设施
武汉市江岸区青少年科技活动中心,114.28536400000,30.58990500000,公服,文化设施
武汉档案文化展示中心,114.29803700000,30.59503800000,公服,文化设施
武汉市国土资源和规划档案馆,114.29963600000,30.59926300000,公服,文化设施
江岸区少儿图书馆,114.28612700000,30.58584200000,公服,文化设施
业兴刻字社,114.28367800000,30.60789200000,公服,文化设施
全国双语学习研究中心华中推广部,114.28165000000,30.60744100000,公服,文化设施
武汉永成慧邦文化传媒有限公司,114.28487000000,30.60775500000,公服,文化设施
武汉年鉴社,114.28375500000,30.58688600000,公服,文化设施
武汉市白蚁防治研究所(建设大道),114.27876100000,30.60614900000,公服,文化设施
香港大公报(湖北办事处),114.27878900000,30.60614500000,公服,文化设施
《生活好帮手》汉口编辑部,114.29034400000,30.60806000000,公服,文化设施
武汉荣宝斋,114.28788600000,30.58661200000,公服,文化设施
中国农机化报湖北记者站,114.29730100000,30.59458100000,公服,文化设施
武汉科技报,114.29205800000,30.58723900000,公服,文化设施
中国书画报社湖北分会,114.29451800000,30.59186400000,公服,文化设施
武汉市青少年宫,114.28028700000,30.59155400000,公服,文化设施
国家发展和改革委员会国家物资储备局设计院,114.29619500000,30.58710500000,公服,文化设施
武汉市规划编制研究和展示中心,114.29640000000,30.60043400000,公服,文化设施
中国医学文摘护理学编辑部,114.29282300000,30.59079700000,公服,文化设施
武汉民政编辑部,114.28081500000,30.60231000000,公服,文化设施
武汉玄龙文化传播有限公司,114.29186500000,30.59910300000,公服,文化设施
武汉国际交流传播中心(高雄路),114.27983700000,30.60451400000,公服,文化设施
武汉领秀联线文化传播有限公司,114.29429900000,30.59335600000,公服,文化设施
菁菁影视文化艺术传播有限公司,114.28721000000,30.58790000000,公服,文化设施
武汉叶子文化传播有限公司,114.28552400000,30.58629700000,公服,文化设施
欧亿霖文化传播有限公司,114.29410900000,30.59345900000,公服,文化设施
武汉艺谋广告传播有限公司,114.29676800000,30.58930400000,公服,文化设施
LAYA非洲鼓部落,114.29099100000,30.59668900000,公服,文化设施
大自然洗浴休闲中心,114.29578300000,30.59238300000,公服,文化设施
新秀舞蹈俱乐部,114.28491400000,30.58680600000,公服,文化设施
《财会月刊》杂志社,114.28518800000,30.59612300000,公服,文化设施
武汉市财贸学校北区,114.28973800000,30.60148300000,公服,文化设施
武汉市城市防洪勘测设计院,114.30188500000,30.60430100000,公服,文化设施
湖北省邮电工程局勘察设计所,114.28672300000,30.60402900000,公服,文化设施
武汉滚石娱乐有限公司,114.29206900000,30.58856000000,公服,文化设施
武汉说唱团(卫生所东),114.29269600000,30.58992200000,公服,文化设施
武汉长江互动传媒网,114.27983700000,30.60451400000,公服,文化设施
格莱美文化传媒,114.29672900000,30.58822200000,公服,文化设施
武汉星飞熙元传媒有限公司,114.29188600000,30.59910300000,公服,文化设施
喜聚堂文化传媒,114.29441700000,30.59122700000,公服,文化设施
武汉市艺术创作研究中心(洞庭街),114.29731900000,30.59182400000,公服,文化设施
武汉诗词楹联学会汉口联络处,114.27826700000,30.58730000000,公服,文化设施
辽宁卫星生物制品研究所,114.27628300000,30.58614600000,公服,文化设施
湖北当代老龄科学研究院,114.27834100000,30.58725800000,公服,文化设施
武汉市建筑设计院第六设计所,114.29966100000,30.60141300000,公服,文化设施
武汉建筑设计院科技大楼-第七设计所,114.29966100000,30.60141300000,公服,文化设施
武汉建筑设计院科技大楼-第一设计所,114.29966100000,30.60141300000,公服,文化设施
武汉市建筑设计院第二设计所,114.29966100000,30.60141300000,公服,文化设施
武汉建筑设计院科技大楼-第五设计所,114.29980300000,30.60147600000,公服,文化设施
《门球周刊》武汉征订发行总站五福分站,114.30163000000,30.60302500000,公服,文化设施
四唯街麟趾社区读书阅览中心,114.29910200000,30.60229900000,公服,文化设施
四唯街五福社区读书阅览中心,114.30072700000,30.60368400000,公服,文化设施
四唯街袁家社区读书阅览中心,114.29865200000,30.60726600000,公服,文化设施
武汉美术馆,114.28757100000,30.58636400000,公服,文化设施
詹天佑故居博物馆,114.29398700000,30.58763000000,公服,文化设施
武汉市政府法制研究中心,114.29752900000,30.59268700000,公服,文化设施
武汉方志馆,114.28362100000,30.58705000000,公服,文化设施
武汉市纺织建筑设计所,114.29509400000,30.58730500000,公服,文化设施
武汉市非物质文化遗产展览中心,114.29289900000,30.58729200000,公服,文化设施
武汉市国际交流服务中心,114.29429900000,30.59335600000,公服,文化设施
幸福杂志社,114.29752900000,30.59268700000,公服,文化设施
武汉市人民政府礼堂,114.29948000000,30.59423300000,公服,文化设施
武汉市青少年宫艺术楼A,114.28022300000,30.59124200000,公服,文化设施
龙观天下(暂停营业),114.29456800000,30.59183300000,公服,文化设施
武汉蓝光艺术博物馆,114.29706000000,30.58884800000,公服,文化设施
武汉市规划研究院,114.29617900000,30.60048200000,公服,文化设施
武汉市土地利用和城市空间规划研究中心(三阳路),114.29633800000,30.60047000000,公服,文化设施
武汉市水利规划设计研究院(六合路),114.30188500000,30.60430100000,公服,文化设施
武汉市规划研究院图文媒体中心,114.29570600000,30.60017100000,公服,文化设施
武汉市规划研究院荷兰ARCADIS联合研究中心,114.29577400000,30.60042300000,公服,文化设施
机动车驾驶员理论法规学习点,114.28159600000,30.60485600000,公服,文化设施
长江岩土工程总公司武汉分公司长江勘测规划设计研究院,114.29956700000,30.60832200000,公服,文化设施
武汉金鹤文化发展有限公司,114.29410900000,30.59345900000,公服,文化设施
武汉环银影业有限公司,114.29408700000,30.58645800000,公服,文化设施
黎黄陂路街头博物馆,114.29678600000,30.58886100000,公服,文化设施
武汉市会计学校(高雄路),114.28157700000,30.59626500000,公服,文化设施
火鸟文化艺术(演艺)有限公司,114.28721000000,30.58790000000,公服,文化设施
吉庆民俗街文化中心,114.28771100000,30.58991900000,公服,文化设施
陆海涛吉他音乐学校,114.29666700000,30.59921900000,公服,文化设施
中国武汉杂技团,114.29659700000,30.59044700000,公服,文化设施
武汉市房安建筑设计所,114.29641000000,30.59548400000,公服,文化设施
武汉市民用建筑设计研究院,114.29348800000,30.58579600000,公服,文化设施
中信建筑设计研究总院,114.29945800000,30.60180800000,公服,文化设施
武汉新世纪教育科学研究所(蔡锷路),114.29857800000,30.59264700000,公服,文化设施
天天向上教育中心,114.29366300000,30.60114200000,公服,文化设施
博硕教育培训学校,114.29530700000,30.60185900000,公服,文化设施
九头鸟舞蹈,114.29142700000,30.58776600000,公服,文化设施
武汉市优秀历史建筑研究所,114.29348800000,30.58579600000,公服,文化设施
中国电子信息产业集团公司信息技术研究院无线通信技术研发中心,114.30223100000,30.60034500000,公服,文化设施
武汉南电电力工程新技术研究所,114.27716400000,30.59688300000,公服,文化设施
湖北省商务厅研究室,114.27828000000,30.58979500000,公服,文化设施
武汉兴阳中医药研究所,114.30179500000,30.60581800000,公服,文化设施
武汉市水务科学研究院,114.30188500000,30.60430100000,公服,文化设施
武汉市抗体研究中心,114.29282300000,30.59079700000,公服,文化设施
武汉冶金研究所,114.30060900000,30.59678600000,公服,文化设施
武汉发展战略研究院,114.30143700000,30.59850700000,公服,文化设施
武汉市交通发展战略研究院(胜利街),114.30014700000,30.59879200000,公服,文化设施
武汉市粮油科学研究所,114.28526100000,30.59354100000,公服,文化设施
武汉科德肿瘤研究所,114.30194200000,30.60368500000,公服,文化设施
武汉市中医药研究所(黎黄陂路),114.29270500000,30.59090700000,公服,文化设施
鑫威骏租车,114.29673900000,30.60619100000,公服,文化设施
国家人事部计算机考培点,114.29289700000,30.59078400000,公服,文化设施
武汉市阳光电子阅览室(胜利街),114.29675200000,30.59445900000,公服,文化设施
武汉乐团,114.29694000000,30.60676600000,公服,文化设施
启明星棋类培训中心(三阳路校区),114.29595300000,30.60160300000,公服,文化设施
武汉公交车身广告媒体营销中心,114.27924100000,30.58628600000,公服,文化设施
萌芽钢琴教室,114.29469400000,30.58772300000,公服,文化设施
泡泡少儿教育(香港路),114.28158600000,30.60479300000,公服,文化设施
优远培训,114.29580000000,30.59301800000,公服,文化设施
武汉市群众艺术馆,114.29306700000,30.58683800000,公服,文化设施
24小时自助图书馆(建设大道),114.27727900000,30.60573100000,公服,文化设施
武汉税收博物馆,114.27927400000,30.60678600000,公服,文化设施
武汉飞阳影视文化传播有限公司,114.29589900000,30.60160900000,公服,文化设施
汉讯广视,114.28152700000,30.58738900000,公服,文化设施
武汉教育电视台新闻部,114.29429900000,30.59335600000,公服,文化设施
武汉图书馆,114.27638900000,30.60550400000,公服,文化设施
外滩设计艺术中心,114.29711600000,30.58907200000,公服,文化设施
武汉市武演文化艺术有限公司,114.28249700000,30.58993700000,公服,文化设施
武汉交通职业学院(中专部台北路校区),114.27990500000,30.59629500000,公服,文化设施
武汉公共自行车武汉二中二站,114.30274100000,30.60823900000,公服,文化设施
武汉市第八医院学术活动中心,114.30058800000,30.60386800000,公服,文化设施
武汉博源教育中心,114.29579800000,30.60157600000,公服,文化设施
爱音音乐,114.29631200000,30.59746100000,公服,文化设施
江岸区教育委员会中学教学研究室,114.29316800000,30.59720400000,公服,文化设施
中华医学会医学美学与美容学分会国际活动中心(武汉),114.27775600000,30.58773000000,公服,文化设施
武汉市新闻出版广电局,114.28996400000,30.59337200000,公服,文化设施
江汉大学学语文报,114.28176800000,30.59743500000,公服,文化设施
湖北省电力博物馆,114.29337300000,30.58759900000,公服,文化设施
中国经济网湖北频道(蔡锷路),114.29738700000,30.59329100000,公服,文化设施
武汉太医堂中医皮肤病研究院,114.28507800000,30.60064200000,公服,文化设施
慈慧轩文化传播,114.29460400000,30.58957700000,公服,文化设施
武汉华炫动漫文化传播有限公司,114.28552400000,30.58629700000,公服,文化设施
武汉财经传媒中心,114.28546200000,30.59593600000,公服,文化设施
英才教育,114.28084800000,30.60076900000,公服,文化设施
湖北省城市文化工业研究会,114.28552400000,30.58629700000,公服,文化设施
超然传媒,114.28749900000,30.59895300000,公服,文化设施
阳光专业录音棚,114.28548500000,30.58636500000,公服,文化设施
四唯街五福社区宣传教育中心,114.30072700000,30.60368400000,公服,文化设施
湖北地方曲艺传承展示基地,114.29283100000,30.58994200000,公服,文化设施
天申文化传媒,114.29813700000,30.59970700000,公服,文化设施
武汉中媒文化传媒有限公司,114.28905600000,30.58890500000,公服,文化设施
利新画廊,114.28718500000,30.60297300000,公服,文化设施
武汉市交通发展战略研究院(四唯路),114.30012200000,30.60119300000,公服,文化设施
翰墨艺术馆,114.29501400000,30.58963500000,公服,文化设施
文都教育(化工大厦店),114.28685900000,30.59706200000,公服,文化设施
三构医学,114.28548600000,30.58636400000,公服,文化设施
HERS杂志社,114.29514000000,30.58954100000,公服,文化设施
武汉德天艺术研究所,114.29746200000,30.60710200000,公服,文化设施
武汉园林雕塑院(解放公园路),114.29223600000,30.60767800000,公服,文化设施
武汉万能医药新技术科研中心,114.29414100000,30.60706600000,公服,文化设施
武汉市艺术创作研究中心(解放大道),114.29760900000,30.60731300000,公服,文化设施
大唐陶瓷博物馆,114.28251600000,30.58583600000,公服,文化设施
湖北长江电影集团有限责任公司,114.30006700000,30.59871200000,公服,文化设施
太阁传媒,114.29664900000,30.58827800000,公服,文化设施
美玉佳文化传播公司,114.29233500000,30.59429200000,公服,文化设施
武汉鸿久文化传播有限公司,114.29603300000,30.59210200000,公服,文化设施
